{
  "北京": {
    "name_zh": "北京",
    "name_en": "Beijing",
    "type": "station",
    "lat": 39.90144,
    "lon": 116.42113,
    "country": "cr",
    "code": "10001",
    "lines": [
      "京沪线",
      "京哈线",
      "北京直径线"
    ]
  },
  "北京南": {
    "name_zh": "北京南",
    "name_en": "Beijing S.",
    "type": "station",
    "lat": 39.863072,
    "lon": 116.372838,
    "country": "cr",
    "code": "10010",
    "lines": [
      "京沪线",
      "京沪高速线",
      "京津城际线"
    ]
  },
  "北京西": {
    "name_zh": "北京西",
    "name_en": "Beijing W.",
    "type": "station",
    "lat": 39.892572,
    "lon": 116.317173,
    "country": "cr",
    "code": "21152",
    "lines": [
      "西长线",
      "北京直径线",
      "京广高速线京石段",
      "京雄城际线"
    ]
  },
  "北京北": {
    "name_zh": "北京北",
    "name_en": "Beijing N.",
    "type": "station",
    "lat": 39.943899,
    "lon": 116.346821,
    "country": "cr",
    "code": "12713",
    "lines": [
      "京包客运专线京呼段"
    ]
  },
  "北京朝阳": {
    "name_zh": "北京朝阳",
    "name_en": "Beijing Chaoyang",
    "type": "station",
    "lat": 39.943668,
    "lon": 116.503226,
    "country": "cr",
    "code": "11389",
    "lines": [
      "东星线",
      "京哈高速线京沈段"
    ]
  },
  "北京丰台": {
    "name_zh": "北京丰台",
    "name_en": "Beijing Fengtai",
    "type": "station",
    "lat": 39.849629,
    "lon": 116.295393,
    "country": "cr",
    "code": "10025",
    "lines": [
      "京沪线",
      "丰沙线"
    ]
  },
  "清河": {
    "name_zh": "清河",
    "name_en": "Qinghe",
    "type": "station",
    "lat": 40.040723,
    "lon": 116.307714,
    "country": "cr",
    "code": "12707",
    "lines": [
      "京包客运专线京呼段"
    ]
  },
  "八达岭长城": {
    "name_zh": "八达岭长城",
    "name_en": "Badaling Great Wall",
    "type": "station",
    "lat": 40.358029,
    "lon": 116.00491,
    "country": "cr",
    "code": "12181",
    "lines": [
      "京包客运专线京呼段"
    ]
  },
  "八达岭": {
    "name_zh": "八达岭",
    "name_en": "Badaling",
    "type": "station",
    "lat": 40.358876,
    "lon": 115.995334,
    "country": "cr",
    "code": "12285",
    "lines": [
      "京包线北京段"
    ]
  },
  "延庆": {
    "name_zh": "延庆",
    "name_en": "Yanqing",
    "type": "station",
    "lat": 40.435215,
    "lon": 115.978119,
    "country": "cr",
    "code": "12224",
    "lines": [
      "康延线",
      "延庆线"
    ]
  },
  "康庄": {
    "name_zh": "康庄",
    "name_en": "Kangzhuang",
    "type": "station",
    "lat": 40.378821,
    "lon": 115.892272,
    "country": "cr",
    "code": "12221",
    "lines": [
      "京包线北京段",
      "康延线"
    ]
  },
  "黄土店": {
    "name_zh": "黄土店",
    "name_en": "Huangtudian",
    "type": "station",
    "lat": 40.068241,
    "lon": 116.357243,
    "country": "cr",
    "code": "12167",
    "lines": [
      "京包线北京段"
    ]
  },
  "北京大兴": {
    "name_zh": "北京大兴",
    "name_en": "Beijing Daxing",
    "type": "station",
    "lat": 39.719037,
    "lon": 116.322743,
    "country": "cr",
    "code": "21156",
    "lines": [
      "京雄城际线"
    ]
  },
  "大兴机场": {
    "name_zh": "大兴机场",
    "name_en": "Daxing Airport",
    "type": "station",
    "lat": 39.5109,
    "lon": 116.409504,
    "country": "cr",
    "code": "21158",
    "lines": [
      "京雄城际线"
    ]
  },
  "昌平北": {
    "name_zh": "昌平北",
    "name_en": "Changping N.",
    "type": "station",
    "lat": 40.230012,
    "lon": 116.227095,
    "country": "cr",
    "code": "11609",
    "lines": [
      "京通线"
    ]
  },
  "怀柔北": {
    "name_zh": "怀柔北",
    "name_en": "Huairou N.",
    "type": "station",
    "lat": 40.407876,
    "lon": 116.686425,
    "country": "cr",
    "code": "11630",
    "lines": [
      "京通线"
    ]
  },
  "古北口": {
    "name_zh": "古北口",
    "name_en": "Gubeikou",
    "type": "station",
    "lat": 40.690513,
    "lon": 117.13534,
    "country": "cr",
    "code": "11675",
    "lines": [
      "京通线"
    ]
  },
  "顺义": {
    "name_zh": "顺义",
    "name_en": "Shunyi",
    "type": "station",
    "lat": 40.124766,
    "lon": 116.639598,
    "country": "cr",
    "code": "11366",
    "lines": [
      "京承线"
    ]
  },
  "燕山": {
    "name_zh": "燕山",
    "name_en": "Yanshan",
    "type": "station",
    "lat": 39.747983,
    "lon": 115.952348,
    "country": "cr",
    "code": "14195",
    "lines": [
      "京原线"
    ]
  },
  "双桥": {
    "name_zh": "双桥",
    "name_en": "Shuangqiao",
    "type": "junction",
    "lat": 39.899197,
    "lon": 116.56407,
    "country": "cr",
    "code": "11333",
    "lines": [
      "京哈线",
      "京承线"
    ]
  },
  "香河": {
    "name_zh": "香河",
    "name_en": "Xianghe",
    "type": "station",
    "lat": 39.71819,
    "lon": 117.027676,
    "country": "cr",
    "code": "9652adef",
    "lines": [
      "京唐城际线"
    ]
  },
  "北京通州": {
    "name_zh": "北京通州",
    "name_en": "Beijing Tongzhou",
    "type": "station",
    "lat": 39.907964,
    "lon": 116.700146,
    "country": "cr",
    "code": "14c24aa2",
    "lines": [
      "京唐城际线"
    ]
  },
  "良乡": {
    "name_zh": "良乡",
    "name_en": "Liangxiang",
    "type": "station",
    "lat": 39.739625,
    "lon": 116.151071,
    "country": "cr",
    "code": "20255",
    "lines": [
      "京广线京石段"
    ]
  },
  "天津": {
    "name_zh": "天津",
    "name_en": "Tianjin",
    "type": "station",
    "lat": 39.136792,
    "lon": 117.20372,
    "country": "cr",
    "code": "10157",
    "lines": [
      "京津城际线",
      "津秦高速线"
    ]
  },
  "天津西": {
    "name_zh": "天津西",
    "name_en": "Tianjin W.",
    "type": "station",
    "lat": 39.156945,
    "lon": 117.157228,
    "country": "cr",
    "code": "16010",
    "lines": [
      "京沪线",
      "南仓城际高速联络线",
      "津霸线",
      "津秦高速线"
    ]
  },
  "天津北": {
    "name_zh": "天津北",
    "name_en": "Tianjin N.",
    "type": "station",
    "lat": 39.165954,
    "lon": 117.203217,
    "country": "cr",
    "code": "10148",
    "lines": [
      "京沪线"
    ]
  },
  "蓟州": {
    "name_zh": "蓟州",
    "name_en": "Jizhou",
    "type": "station",
    "lat": 39.993686,
    "lon": 117.362706,
    "country": "cr",
    "code": "11132",
    "lines": [
      "京哈线"
    ]
  },
  "蓟州北": {
    "name_zh": "蓟州北",
    "name_en": "Jizhou N.",
    "type": "station",
    "lat": 40.025454,
    "lon": 117.391628,
    "country": "cr",
    "code": "10526",
    "lines": [
      "津蓟线"
    ]
  },
  "石家庄": {
    "name_zh": "石家庄",
    "name_en": "Shijiazhuang",
    "type": "station",
    "lat": 38.009434,
    "lon": 114.478487,
    "country": "cr",
    "code": "20372",
    "lines": [
      "京广线石郑段",
      "京广高速线京石段"
    ]
  },
  "石家庄北": {
    "name_zh": "石家庄北",
    "name_en": "Shijiazhuang N.",
    "type": "station",
    "lat": 38.064809,
    "lon": 114.458946,
    "country": "cr",
    "code": "26426",
    "lines": [
      "石家庄西北环线",
      "石太客运专线"
    ]
  },
  "唐山": {
    "name_zh": "唐山",
    "name_en": "Tangshan",
    "type": "station",
    "lat": 39.622864,
    "lon": 118.115152,
    "country": "cr",
    "code": "10214",
    "lines": [
      "张唐线",
      "津秦高速线"
    ]
  },
  "承德": {
    "name_zh": "承德",
    "name_en": "Chengde",
    "type": "station",
    "lat": 40.963096,
    "lon": 117.948261,
    "country": "cr",
    "code": "11492",
    "lines": [
      "京承线",
      "承隆线"
    ]
  },
  "承德南": {
    "name_zh": "承德南",
    "name_en": "Chengde S.",
    "type": "station",
    "lat": 40.883668,
    "lon": 117.958703,
    "country": "cr",
    "code": "52920",
    "lines": [
      "京哈高速线京沈段"
    ]
  },
  "霸州西": {
    "name_zh": "霸州西",
    "name_en": "Bazhou W.",
    "type": "station",
    "lat": 39.092989,
    "lon": 116.344457,
    "country": "cr",
    "code": "20383",
    "lines": [
      "霸徐线",
      "津霸线"
    ]
  },
  "霸州北": {
    "name_zh": "霸州北",
    "name_en": "Bazhou N.",
    "type": "station",
    "lat": 39.185558,
    "lon": 116.321097,
    "country": "cr",
    "code": "21162",
    "lines": [
      "京雄城际线"
    ]
  },
  "雄安": {
    "name_zh": "雄安",
    "name_en": "Xiong'an",
    "type": "station",
    "lat": 39.055624,
    "lon": 116.154071,
    "country": "cr",
    "code": "21164",
    "lines": [
      "京雄城际线"
    ]
  },
  "白洋淀": {
    "name_zh": "白洋淀",
    "name_en": "Baiyangdian",
    "type": "station",
    "lat": 39.068633,
    "lon": 115.868901,
    "country": "cr",
    "code": "20387",
    "lines": [
      "霸徐线"
    ]
  },
  "秦皇岛": {
    "name_zh": "秦皇岛",
    "name_en": "Qinhuangdao",
    "type": "station",
    "lat": 39.964616,
    "lon": 119.586226,
    "country": "cr",
    "code": "10319",
    "lines": [
      "京哈线",
      "津秦高速线"
    ]
  },
  "山海关": {
    "name_zh": "山海关",
    "name_en": "Shanhaiguan",
    "type": "station",
    "lat": 39.999403,
    "lon": 119.761552,
    "country": "cr",
    "code": "10331",
    "lines": [
      "京哈线"
    ]
  },
  "北戴河": {
    "name_zh": "北戴河",
    "name_en": "Beidaihe",
    "type": "station",
    "lat": 39.849858,
    "lon": 119.41362,
    "country": "cr",
    "code": "10307",
    "lines": [
      "京哈线",
      "津秦高速线"
    ]
  },
  "张家口": {
    "name_zh": "张家口",
    "name_en": "Zhangjiakou",
    "type": "station",
    "lat": 40.750704,
    "lon": 114.876733,
    "country": "cr",
    "code": "12782",
    "lines": [
      "京包客运专线京呼段"
    ]
  },
  "宣化": {
    "name_zh": "宣化",
    "name_en": "Xuanhua",
    "type": "station",
    "lat": 40.596602,
    "lon": 115.050377,
    "country": "cr",
    "code": "12290",
    "lines": [
      "丰沙线"
    ]
  },
  "燕郊": {
    "name_zh": "燕郊",
    "name_en": "Yanjiao",
    "type": "station",
    "lat": 39.94057,
    "lon": 116.819673,
    "country": "cr",
    "code": "11108",
    "lines": [
      "京唐城际线"
    ]
  },
  "呼和浩特": {
    "name_zh": "呼和浩特",
    "name_en": "Hohhot",
    "type": "station",
    "lat": 40.829499,
    "lon": 111.658306,
    "country": "cr",
    "code": "12581",
    "lines": [
      "京包客运专线京呼段"
    ]
  },
  "呼和浩特东": {
    "name_zh": "呼和浩特东",
    "name_en": "Hohhot E.",
    "type": "station",
    "lat": 40.848343,
    "lon": 111.759334,
    "country": "cr",
    "code": "12578",
    "lines": [
      "京包线呼和浩特段",
      "京包客运专线京呼段"
    ]
  },
  "乌兰察布": {
    "name_zh": "乌兰察布",
    "name_en": "Ulanqab",
    "type": "station",
    "lat": 40.963345,
    "lon": 113.152254,
    "country": "cr",
    "code": "12113",
    "lines": [
      "京包客运专线京呼段"
    ]
  },
  "通辽": {
    "name_zh": "通辽",
    "name_en": "Tongliao",
    "type": "station",
    "lat": 43.602941,
    "lon": 122.266425,
    "country": "cr",
    "code": "53363",
    "lines": [
      "新通客运专线"
    ]
  },
  "海拉尔": {
    "name_zh": "海拉尔",
    "name_en": "Hailar",
    "type": "station",
    "lat": 49.22843,
    "lon": 119.736663,
    "country": "cr",
    "code": "57785",
    "lines": [
      "滨洲线"
    ]
  },
  "哈尔滨": {
    "name_zh": "哈尔滨",
    "name_en": "Harbin",
    "type": "station",
    "lat": 45.758149,
    "lon": 126.62486,
    "country": "cr",
    "code": "55661",
    "lines": [
      "京哈线",
      "滨洲线",
      "京哈高速线沈哈段",
      "哈牡客运专线"
    ]
  },
  "哈尔滨东": {
    "name_zh": "哈尔滨东",
    "name_en": "Harbin E.",
    "type": "station",
    "lat": 45.784391,
    "lon": 126.707134,
    "country": "cr",
    "code": "60002",
    "lines": [
      "拉滨线",
      "滨北线"
    ]
  },
  "哈尔滨西": {
    "name_zh": "哈尔滨西",
    "name_en": "Harbin W.",
    "type": "station",
    "lat": 45.705387,
    "lon": 126.571042,
    "country": "cr",
    "code": "53469",
    "lines": [
      "京哈线"
    ]
  },
  "呼兰": {
    "name_zh": "呼兰",
    "name_en": "Hulan",
    "type": "station",
    "lat": 45.996263,
    "lon": 126.640569,
    "country": "cr",
    "code": "59789",
    "lines": [
      "滨北线"
    ]
  },
  "牡丹江": {
    "name_zh": "牡丹江",
    "name_en": "Mudanjiang",
    "type": "station",
    "lat": 44.589049,
    "lon": 129.60628,
    "country": "cr",
    "code": "61193",
    "lines": [
      "滨绥线哈牡段",
      "滨绥线牡绥段",
      "哈牡客运专线"
    ]
  },
  "横道河子东": {
    "name_zh": "横道河子东",
    "name_en": "Hengdaohezi E.",
    "type": "station",
    "lat": 44.788929,
    "lon": 129.09908,
    "country": "cr",
    "code": "61189",
    "lines": [
      "哈牡客运专线"
    ]
  },
  "绥芬河": {
    "name_zh": "绥芬河",
    "name_en": "Suifenhe",
    "type": "station",
    "lat": 44.404199,
    "lon": 131.129175,
    "country": "cr",
    "code": "62231",
    "lines": [
      "滨绥线牡绥段"
    ]
  },
  "齐齐哈尔": {
    "name_zh": "齐齐哈尔",
    "name_en": "Qiqihar",
    "type": "station",
    "lat": 47.338071,
    "lon": 123.989172,
    "country": "cr",
    "code": "56675",
    "lines": [
      "平齐线",
      "齐北线"
    ]
  },
  "漠河": {
    "name_zh": "漠河",
    "name_en": "Mohe",
    "type": "station",
    "lat": 52.986709,
    "lon": 122.500514,
    "country": "cr",
    "code": "59150",
    "lines": [
      "富西线"
    ]
  },
  "长春": {
    "name_zh": "长春",
    "name_en": "Changchun",
    "type": "station",
    "lat": 43.909017,
    "lon": 125.318013,
    "country": "cr",
    "code": "54116",
    "lines": [
      "京哈线",
      "长珲城际线"
    ]
  },
  "龙嘉": {
    "name_zh": "龙嘉",
    "name_en": "Longjia Airport",
    "type": "station",
    "lat": 43.990324,
    "lon": 125.693945,
    "country": "cr",
    "code": "65960",
    "lines": [
      "长珲城际线"
    ]
  },
  "吉林": {
    "name_zh": "吉林",
    "name_en": "Jilin",
    "type": "station",
    "lat": 43.857022,
    "lon": 126.572451,
    "country": "cr",
    "code": "63059",
    "lines": [
      "长珲城际线"
    ]
  },
  "四平": {
    "name_zh": "四平",
    "name_en": "Siping",
    "type": "station",
    "lat": 43.165104,
    "lon": 124.36728,
    "country": "cr",
    "code": "54011",
    "lines": [
      "京哈线",
      "平齐线",
      "四梅线"
    ]
  },
  "四平东": {
    "name_zh": "四平东",
    "name_en": "Siping E.",
    "type": "station",
    "lat": 43.135985,
    "lon": 124.43178,
    "country": "cr",
    "code": "53487",
    "lines": [
      "京哈高速线沈哈段"
    ]
  },
  "通化": {
    "name_zh": "通化",
    "name_en": "Tonghua",
    "type": "station",
    "lat": 41.7761,
    "lon": 125.91626,
    "country": "cr",
    "code": "64418",
    "lines": [
      "梅集线"
    ]
  },
  "长白山": {
    "name_zh": "长白山",
    "name_en": "Changbaishan",
    "type": "station",
    "lat": 42.459589,
    "lon": 128.122375,
    "country": "cr",
    "code": "64090",
    "lines": [
      "沈佳高速线敦白段"
    ]
  },
  "沈阳北": {
    "name_zh": "沈阳北",
    "name_en": "Shenyang N.",
    "type": "station",
    "lat": 41.81696,
    "lon": 123.429815,
    "country": "cr",
    "code": "53885",
    "lines": [
      "京哈线",
      "京哈高速线沈哈段",
      "沈大高速线",
      "沈佳高速线沈白段"
    ]
  },
  "沈阳南": {
    "name_zh": "沈阳南",
    "name_en": "Shenyang S.",
    "type": "station",
    "lat": 41.66637,
    "lon": 123.400938,
    "country": "cr",
    "code": "63623",
    "lines": [
      "沈大高速线",
      "沈丹客专线"
    ]
  },
  "大连": {
    "name_zh": "大连",
    "name_en": "Dalian",
    "type": "station",
    "lat": 38.921389,
    "lon": 121.628079,
    "country": "cr",
    "code": "53522",
    "lines": [
      "沈大线"
    ]
  },
  "大连北": {
    "name_zh": "大连北",
    "name_en": "Dalian N.",
    "type": "station",
    "lat": 39.015978,
    "lon": 121.601377,
    "country": "cr",
    "code": "53520",
    "lines": [
      "沈大线",
      "沈大高速线",
      "丹大线"
    ]
  },
  "抚顺": {
    "name_zh": "抚顺",
    "name_en": "Fushun",
    "type": "station",
    "lat": 41.888034,
    "lon": 123.912075,
    "country": "cr",
    "code": "55376",
    "lines": [
      "沈佳高速线沈白段"
    ]
  },
  "丹东": {
    "name_zh": "丹东",
    "name_en": "Dandong",
    "type": "station",
    "lat": 40.122162,
    "lon": 124.380192,
    "country": "cr",
    "code": "55118",
    "lines": [
      "沈丹客专线",
      "丹大线"
    ]
  },
  "济南": {
    "name_zh": "济南",
    "name_en": "Jinan",
    "type": "station",
    "lat": 36.670731,
    "lon": 116.985072,
    "country": "cr",
    "code": "16295",
    "lines": [
      "京沪济南线",
      "济沪联络线",
      "京济联络线",
      "胶济客运专线"
    ]
  },
  "济南西": {
    "name_zh": "济南西",
    "name_en": "Jinan W.",
    "type": "station",
    "lat": 36.669206,
    "lon": 116.887906,
    "country": "cr",
    "code": "66812",
    "lines": [
      "京济联络线",
      "京沪高速线"
    ]
  },
  "淄博": {
    "name_zh": "淄博",
    "name_en": "Zibo",
    "type": "station",
    "lat": 36.788356,
    "lon": 118.051558,
    "country": "cr",
    "code": "17786",
    "lines": [
      "胶济客运专线"
    ]
  },
  "南博山": {
    "name_zh": "南博山",
    "name_en": "South Boshan",
    "type": "station",
    "lat": 36.357596,
    "lon": 117.955066,
    "country": "cr",
    "code": "18383",
    "lines": [
      "辛泰线"
    ]
  },
  "泰安": {
    "name_zh": "泰安",
    "name_en": "Tai'an",
    "type": "station",
    "lat": 36.172083,
    "lon": 117.029348,
    "country": "cr",
    "code": "66815",
    "lines": [
      "京沪高速线"
    ]
  },
  "泰山": {
    "name_zh": "泰山",
    "name_en": "Taishan",
    "type": "station",
    "lat": 36.186857,
    "lon": 117.103623,
    "country": "cr",
    "code": "16352",
    "lines": [
      "京沪线",
      "辛泰线"
    ]
  },
  "青岛北": {
    "name_zh": "青岛北",
    "name_en": "Qingdao N.",
    "type": "station",
    "lat": 36.168694,
    "lon": 120.369524,
    "country": "cr",
    "code": "18088",
    "lines": [
      "胶济客运专线",
      "济青高速线"
    ]
  },
  "兖州": {
    "name_zh": "兖州",
    "name_en": "Yanzhou",
    "type": "station",
    "lat": 35.556214,
    "lon": 116.835541,
    "country": "cr",
    "code": "16400",
    "lines": [
      "京沪线"
    ]
  },
  "威海": {
    "name_zh": "威海",
    "name_en": "Weihai",
    "type": "station",
    "lat": 37.425663,
    "lon": 122.138637,
    "country": "cr",
    "code": "18618",
    "lines": [
      "青荣城际线威荣段"
    ]
  },
  "烟台": {
    "name_zh": "烟台",
    "name_en": "Yantai",
    "type": "station",
    "lat": 37.547492,
    "lon": 121.377421,
    "country": "cr",
    "code": "18557",
    "lines": [
      "青烟直通线"
    ]
  },
  "莱西": {
    "name_zh": "莱西",
    "name_en": "Laixi",
    "type": "station",
    "lat": 36.823534,
    "lon": 120.524985,
    "country": "cr",
    "code": "18657",
    "lines": [
      "莱西联络线",
      "青荣城际线青烟段"
    ]
  },
  "上海": {
    "name_zh": "上海",
    "name_en": "Shanghai",
    "type": "station",
    "lat": 31.251539,
    "lon": 121.45119,
    "country": "cr",
    "code": "30671",
    "lines": [
      "京沪线",
      "沪宁城际线"
    ]
  },
  "上海南": {
    "name_zh": "上海南",
    "name_en": "Shanghai S.",
    "type": "station",
    "lat": 31.153863,
    "lon": 121.426983,
    "country": "cr",
    "code": "32270",
    "lines": [
      "沪春线",
      "上海南联络线（沪春三四线）"
    ]
  },
  "上海虹桥": {
    "name_zh": "上海虹桥",
    "name_en": "Shanghai Hongqiao",
    "type": "station",
    "lat": 31.196704,
    "lon": 121.314801,
    "country": "cr",
    "code": "66100",
    "lines": [
      "沪苏湖高速线",
      "虹封线",
      "虹安联络线",
      "虹七线",
      "京沪高速线",
      "沪昆高速线沪赣段"
    ]
  },
  "上海西": {
    "name_zh": "上海西",
    "name_en": "Shanghai W.",
    "type": "station",
    "lat": 31.264135,
    "lon": 121.398156,
    "country": "cr",
    "code": "30662",
    "lines": [
      "沪宁城际线"
    ]
  },
  "上海松江": {
    "name_zh": "上海松江",
    "name_en": "Shanghai Songjiang",
    "type": "station",
    "lat": 30.985034,
    "lon": 121.22531,
    "country": "cr",
    "code": "32022",
    "lines": [
      "沪昆线",
      "沪苏湖高速线",
      "沪昆高速线沪赣段"
    ]
  },
  "[松江北]": {
    "name_zh": "[松江北]",
    "name_en": "[Songjiang N.]",
    "type": "station",
    "lat": 31.00168,
    "lon": 121.223402,
    "country": "cr",
    "code": "32090",
    "lines": []
  },
  "南京": {
    "name_zh": "南京",
    "name_en": "Nanjing",
    "type": "station",
    "lat": 32.09012,
    "lon": 118.793041,
    "country": "cr",
    "code": "16805",
    "lines": [
      "京沪线",
      "沪宁城际线"
    ]
  },
  "南京南": {
    "name_zh": "南京南",
    "name_en": "Nanjing S.",
    "type": "station",
    "lat": 31.970063,
    "lon": 118.793877,
    "country": "cr",
    "code": "16804",
    "lines": [
      "沪宁沿江高速线",
      "京沪高速线",
      "宁蓉线宁汉段",
      "宁杭高速线"
    ]
  },
  "苏州": {
    "name_zh": "苏州",
    "name_en": "Suzhou",
    "type": "station",
    "lat": 31.331842,
    "lon": 120.606681,
    "country": "cr",
    "code": "30530",
    "lines": [
      "京沪线",
      "沪宁城际线"
    ]
  },
  "苏州北": {
    "name_zh": "苏州北",
    "name_en": "Suzhou N.",
    "type": "station",
    "lat": 31.423241,
    "lon": 120.639286,
    "country": "cr",
    "code": "66854",
    "lines": [
      "京沪高速线"
    ]
  },
  "苏州园区": {
    "name_zh": "苏州园区",
    "name_en": "Suzhou SIP",
    "type": "station",
    "lat": 31.343685,
    "lon": 120.706233,
    "country": "cr",
    "code": "66328",
    "lines": [
      "沪宁城际线"
    ]
  },
  "苏州新区": {
    "name_zh": "苏州新区",
    "name_en": "Suzhou SND",
    "type": "station",
    "lat": 31.374043,
    "lon": 120.520109,
    "country": "cr",
    "code": "66325",
    "lines": [
      "沪宁城际线"
    ]
  },
  "苏州南": {
    "name_zh": "苏州南",
    "name_en": "Suzhou S.",
    "type": "station",
    "lat": 31.065315,
    "lon": 120.795515,
    "country": "cr",
    "code": "32026",
    "lines": [
      "沪苏湖高速线"
    ]
  },
  "太仓": {
    "name_zh": "太仓",
    "name_en": "Taicang",
    "type": "station",
    "lat": 31.512012,
    "lon": 121.192145,
    "country": "cr",
    "code": "16565",
    "lines": [
      "太仓联络线",
      "沪宁沿江高速线",
      "沪苏通线"
    ]
  },
  "常熟": {
    "name_zh": "常熟",
    "name_en": "Changshu",
    "type": "station",
    "lat": 31.699534,
    "lon": 120.775997,
    "country": "cr",
    "code": "16561",
    "lines": [
      "沪宁沿江高速线",
      "沪苏通线"
    ]
  },
  "张家港": {
    "name_zh": "张家港",
    "name_en": "Zhangjiagang",
    "type": "station",
    "lat": 31.819379,
    "lon": 120.669746,
    "country": "cr",
    "code": "16559",
    "lines": [
      "沪宁沿江高速线",
      "沪苏通线"
    ]
  },
  "无锡新区": {
    "name_zh": "无锡新区",
    "name_en": "Wuxi New District",
    "type": "station",
    "lat": 31.499407,
    "lon": 120.387922,
    "country": "cr",
    "code": "66322",
    "lines": [
      "沪宁城际线"
    ]
  },
  "江阴": {
    "name_zh": "江阴",
    "name_en": "Jiangyin",
    "type": "station",
    "lat": 31.863894,
    "lon": 120.274643,
    "country": "cr",
    "code": "19097",
    "lines": [
      "沪宁沿江高速线"
    ]
  },
  "常州": {
    "name_zh": "常州",
    "name_en": "Changzhou",
    "type": "station",
    "lat": 31.787334,
    "lon": 119.969199,
    "country": "cr",
    "code": "30452",
    "lines": [
      "沪宁城际线"
    ]
  },
  "武进": {
    "name_zh": "武进",
    "name_en": "Wujin",
    "type": "station",
    "lat": 31.661213,
    "lon": 119.942015,
    "country": "cr",
    "code": "19105",
    "lines": [
      "沪宁沿江高速线"
    ]
  },
  "镇江": {
    "name_zh": "镇江",
    "name_en": "Zhenjiang",
    "type": "station",
    "lat": 32.199586,
    "lon": 119.427367,
    "country": "cr",
    "code": "30407",
    "lines": [
      "沪宁城际线",
      "镇江联络线"
    ]
  },
  "徐州东": {
    "name_zh": "徐州东",
    "name_en": "Xuzhou E.",
    "type": "station",
    "lat": 34.268629,
    "lon": 117.29773,
    "country": "cr",
    "code": "66827",
    "lines": [
      "京沪高速线",
      "徐盐高速线",
      "徐州联络线"
    ]
  },
  "宿迁": {
    "name_zh": "宿迁",
    "name_en": "Suqian",
    "type": "station",
    "lat": 33.87591,
    "lon": 118.276336,
    "country": "cr",
    "code": "18828",
    "lines": [
      "徐盐高速线"
    ]
  },
  "淮安东": {
    "name_zh": "淮安东",
    "name_en": "Huai'an E.",
    "type": "station",
    "lat": 33.570124,
    "lon": 119.182747,
    "country": "cr",
    "code": "18830",
    "lines": [
      "徐盐高速线",
      "连镇高速线"
    ]
  },
  "启东": {
    "name_zh": "启东",
    "name_en": "Qidong",
    "type": "station",
    "lat": 31.859289,
    "lon": 121.640909,
    "country": "cr",
    "code": "19130",
    "lines": [
      "宁启线"
    ]
  },
  "连云港": {
    "name_zh": "连云港",
    "name_en": "Lianyungang",
    "type": "station",
    "lat": 34.610303,
    "lon": 119.158251,
    "country": "cr",
    "code": "38531",
    "lines": [
      "青盐线"
    ]
  },
  "盐城": {
    "name_zh": "盐城",
    "name_en": "Yancheng",
    "type": "station",
    "lat": 33.383739,
    "lon": 120.16919,
    "country": "cr",
    "code": "18968",
    "lines": [
      "盐通高速线",
      "新长线",
      "徐盐高速线"
    ]
  },
  "海安": {
    "name_zh": "海安",
    "name_en": "Hai'an",
    "type": "station",
    "lat": 32.549268,
    "lon": 120.50033,
    "country": "cr",
    "code": "17370",
    "lines": [
      "盐通高速线",
      "宁启线",
      "新长线"
    ]
  },
  "扬州": {
    "name_zh": "扬州",
    "name_en": "Yangzhou",
    "type": "station",
    "lat": 32.391623,
    "lon": 119.345396,
    "country": "cr",
    "code": "17364",
    "lines": [
      "宁启线"
    ]
  },
  "扬州东": {
    "name_zh": "扬州东",
    "name_en": "Yangzhou E.",
    "type": "station",
    "lat": 32.40657,
    "lon": 119.523948,
    "country": "cr",
    "code": "17334",
    "lines": [
      "连镇高速线"
    ]
  },
  "杭州": {
    "name_zh": "杭州",
    "name_en": "Hangzhou",
    "type": "station",
    "lat": 30.246198,
    "lon": 120.177326,
    "country": "cr",
    "code": "32252",
    "lines": [
      "笕杭线",
      "宣杭线"
    ]
  },
  "杭州东": {
    "name_zh": "杭州东",
    "name_en": "Hangzhou E.",
    "type": "station",
    "lat": 30.293964,
    "lon": 120.207892,
    "country": "cr",
    "code": "32001",
    "lines": [
      "沪昆线",
      "沪昆高速线沪赣段",
      "杭深线杭甬段",
      "宁杭高速线"
    ]
  },
  "杭州南": {
    "name_zh": "杭州南",
    "name_en": "Hangzhou S.",
    "type": "station",
    "lat": 30.174535,
    "lon": 120.288713,
    "country": "cr",
    "code": "32460",
    "lines": [
      "沪昆线",
      "萧甬线",
      "沪昆高速线沪赣段",
      "杭甬联络线"
    ]
  },
  "杭州西": {
    "name_zh": "杭州西",
    "name_en": "Hangzhou W.",
    "type": "station",
    "lat": 30.300426,
    "lon": 119.98213,
    "country": "cr",
    "code": "66279",
    "lines": [
      "合杭高速线"
    ]
  },
  "绍兴": {
    "name_zh": "绍兴",
    "name_en": "Shaoxing",
    "type": "station",
    "lat": 30.016435,
    "lon": 120.574742,
    "country": "cr",
    "code": "33185",
    "lines": [
      "萧甬线"
    ]
  },
  "绍兴北": {
    "name_zh": "绍兴北",
    "name_en": "Shaoxing N.",
    "type": "station",
    "lat": 30.102819,
    "lon": 120.532994,
    "country": "cr",
    "code": "33187",
    "lines": [
      "杭深线杭甬段"
    ]
  },
  "诸暨": {
    "name_zh": "诸暨",
    "name_en": "Zhuji",
    "type": "station",
    "lat": 29.730065,
    "lon": 120.181038,
    "country": "cr",
    "code": "32501",
    "lines": [
      "沪昆高速线沪赣段"
    ]
  },
  "宁波": {
    "name_zh": "宁波",
    "name_en": "Ningbo",
    "type": "station",
    "lat": 29.865233,
    "lon": 121.532402,
    "country": "cr",
    "code": "33284",
    "lines": [
      "杭深线杭甬段",
      "杭深线甬深段"
    ]
  },
  "温州南": {
    "name_zh": "温州南",
    "name_en": "Wenzhou S.",
    "type": "station",
    "lat": 27.969313,
    "lon": 120.581208,
    "country": "cr",
    "code": "33990",
    "lines": [
      "杭深线甬深段",
      "金温线"
    ]
  },
  "义乌": {
    "name_zh": "义乌",
    "name_en": "Yiwu",
    "type": "station",
    "lat": 29.380372,
    "lon": 120.038677,
    "country": "cr",
    "code": "32537",
    "lines": [
      "杭温高速线杭义段"
    ]
  },
  "横店": {
    "name_zh": "横店",
    "name_en": "Hengdian",
    "type": "station",
    "lat": 29.217579,
    "lon": 120.260177,
    "country": "cr",
    "code": "21011",
    "lines": [
      "杭温高速线义温段"
    ]
  },
  "湖州": {
    "name_zh": "湖州",
    "name_en": "Huzhou",
    "type": "station",
    "lat": 30.864274,
    "lon": 120.019428,
    "country": "cr",
    "code": "31854",
    "lines": [
      "沪苏湖高速线",
      "宁杭高速线",
      "合杭高速线"
    ]
  },
  "湖州南浔": {
    "name_zh": "湖州南浔",
    "name_en": "Huzhou Nanxun",
    "type": "station",
    "lat": 30.829534,
    "lon": 120.402696,
    "country": "cr",
    "code": "32028",
    "lines": [
      "沪苏湖高速线"
    ]
  },
  "嘉兴": {
    "name_zh": "嘉兴",
    "name_en": "Jiaxing",
    "type": "station",
    "lat": 30.766969,
    "lon": 120.758817,
    "country": "cr",
    "code": "32138",
    "lines": [
      "沪昆线"
    ]
  },
  "嘉兴南": {
    "name_zh": "嘉兴南",
    "name_en": "Jiaxing S.",
    "type": "station",
    "lat": 30.693215,
    "lon": 120.794937,
    "country": "cr",
    "code": "32013",
    "lines": [
      "沪昆高速线沪赣段"
    ]
  },
  "海宁": {
    "name_zh": "海宁",
    "name_en": "Haining",
    "type": "station",
    "lat": 30.535639,
    "lon": 120.680671,
    "country": "cr",
    "code": "32159",
    "lines": [
      "沪昆线"
    ]
  },
  "衢州": {
    "name_zh": "衢州",
    "name_en": "Quzhou",
    "type": "station",
    "lat": 28.927599,
    "lon": 118.876167,
    "country": "cr",
    "code": "32621",
    "lines": [
      "沪昆线",
      "衢九线",
      "沪昆高速线沪赣段"
    ]
  },
  "合肥南": {
    "name_zh": "合肥南",
    "name_en": "Hefei S.",
    "type": "station",
    "lat": 31.800958,
    "lon": 117.284759,
    "country": "cr",
    "code": "19423",
    "lines": [
      "宁蓉线宁汉段",
      "合福高速线合黄段"
    ]
  },
  "黄山北": {
    "name_zh": "黄山北",
    "name_en": "Huangshan N.",
    "type": "station",
    "lat": 29.818051,
    "lon": 118.267618,
    "country": "cr",
    "code": "34130",
    "lines": [
      "池黄高速线",
      "杭昌高速线",
      "合福高速线合黄段"
    ]
  },
  "黟县东": {
    "name_zh": "黟县东",
    "name_en": "Yixian E.",
    "type": "station",
    "lat": 29.887332,
    "lon": 118.042367,
    "country": "cr",
    "code": "35927",
    "lines": [
      "池黄高速线"
    ]
  },
  "芜湖": {
    "name_zh": "芜湖",
    "name_en": "Wuhu",
    "type": "station",
    "lat": 31.350149,
    "lon": 118.387385,
    "country": "cr",
    "code": "30926",
    "lines": [
      "淮南线",
      "皖赣线",
      "合杭高速线"
    ]
  },
  "芜湖南": {
    "name_zh": "芜湖南",
    "name_en": "Wuhu S.",
    "type": "station",
    "lat": 31.250829,
    "lon": 118.373327,
    "country": "cr",
    "code": "30928",
    "lines": [
      "合杭高速线"
    ]
  },
  "池州": {
    "name_zh": "池州",
    "name_en": "Chizhou",
    "type": "station",
    "lat": 30.622132,
    "lon": 117.516126,
    "country": "cr",
    "code": "31015",
    "lines": [
      "池黄高速线"
    ]
  },
  "福州": {
    "name_zh": "福州",
    "name_en": "Fuzhou",
    "type": "station",
    "lat": 26.117167,
    "lon": 119.315415,
    "country": "cr",
    "code": "34682",
    "lines": [
      "昌福线",
      "合福高速线饶福段"
    ]
  },
  "福州南": {
    "name_zh": "福州南",
    "name_en": "Fuzhou S.",
    "type": "station",
    "lat": 25.988279,
    "lon": 119.385601,
    "country": "cr",
    "code": "34151",
    "lines": [
      "甬广高速线",
      "杭深线甬深段"
    ]
  },
  "厦门": {
    "name_zh": "厦门",
    "name_en": "Xiamen",
    "type": "station",
    "lat": 24.470209,
    "lon": 118.111225,
    "country": "cr",
    "code": "34583",
    "lines": [
      "鹰厦线"
    ]
  },
  "厦门北": {
    "name_zh": "厦门北",
    "name_en": "Xiamen N.",
    "type": "station",
    "lat": 24.638772,
    "lon": 118.06903,
    "country": "cr",
    "code": "34178",
    "lines": [
      "甬广高速线",
      "杭深线甬深段"
    ]
  },
  "泉州": {
    "name_zh": "泉州",
    "name_en": "Quanzhou",
    "type": "station",
    "lat": 24.976173,
    "lon": 118.563221,
    "country": "cr",
    "code": "34169",
    "lines": [
      "杭深线甬深段"
    ]
  },
  "漳州": {
    "name_zh": "漳州",
    "name_en": "Zhangzhou",
    "type": "station",
    "lat": 24.460352,
    "lon": 117.711826,
    "country": "cr",
    "code": "35067",
    "lines": [
      "杭深线甬深段"
    ]
  },
  "广州东": {
    "name_zh": "广州东",
    "name_en": "Guangzhou E.",
    "type": "station",
    "lat": 23.152877,
    "lon": 113.319977,
    "country": "cr",
    "code": "23711",
    "lines": [
      "广深城际线"
    ]
  },
  "广州南": {
    "name_zh": "广州南",
    "name_en": "Guangzhou S.",
    "type": "station",
    "lat": 22.991077,
    "lon": 113.261758,
    "country": "cr",
    "code": "65848",
    "lines": [
      "京广高速线武广段",
      "南广线"
    ]
  },
  "广州北": {
    "name_zh": "广州北",
    "name_en": "Guangzhou N,",
    "type": "station",
    "lat": 23.379972,
    "lon": 113.198418,
    "country": "cr",
    "code": "23471",
    "lines": [
      "花广联络线",
      "京广高速线武广段"
    ]
  },
  "广州白云": {
    "name_zh": "广州白云",
    "name_en": "Guangzhou Baiyun",
    "type": "station",
    "lat": 23.193938,
    "lon": 113.241036,
    "country": "cr",
    "code": "23475",
    "lines": [
      "花广联络线"
    ]
  },
  "广州新塘": {
    "name_zh": "广州新塘",
    "name_en": "Guangzhou Xintang",
    "type": "station",
    "lat": 23.136824,
    "lon": 113.60113,
    "country": "cr",
    "code": "23738",
    "lines": [
      "广深城际线"
    ]
  },
  "花都": {
    "name_zh": "花都",
    "name_en": "Huadu",
    "type": "station",
    "lat": 23.379797,
    "lon": 113.197517,
    "country": "gi",
    "code": "Q06",
    "lines": [
      "广州东环城际线",
      "广清城际线"
    ]
  },
  "清城": {
    "name_zh": "清城",
    "name_en": "Qingcheng",
    "type": "station",
    "lat": 23.656003,
    "lon": 113.061023,
    "country": "gi",
    "code": "Q11",
    "lines": [
      "广清城际线"
    ]
  },
  "琶洲": {
    "name_zh": "琶洲",
    "name_en": "Pazhou",
    "type": "station",
    "lat": 23.102843,
    "lon": 113.362706,
    "country": "gi",
    "code": "D04",
    "lines": [
      "琶莲城际线"
    ]
  },
  "白云机场北": {
    "name_zh": "白云机场北",
    "name_en": "Baiyun Airport N.",
    "type": "station",
    "lat": 23.398986,
    "lon": 113.300541,
    "country": "gi",
    "code": "D13",
    "lines": [
      "广州东环城际线"
    ]
  },
  "东莞西": {
    "name_zh": "东莞西",
    "name_en": "Dongguan W.",
    "type": "station",
    "lat": 23.01087,
    "lon": 113.620906,
    "country": "gi",
    "code": "H07",
    "lines": [
      "穗深城际线",
      "广惠城际线"
    ]
  },
  "西平西": {
    "name_zh": "西平西",
    "name_en": "Xiping W.",
    "type": "station",
    "lat": 22.996362,
    "lon": 113.74057,
    "country": "gi",
    "code": "H09",
    "lines": [
      "广惠城际线"
    ]
  },
  "深圳机场": {
    "name_zh": "深圳机场",
    "name_en": "Shenzhen Airport",
    "type": "station",
    "lat": 22.623983,
    "lon": 113.806032,
    "country": "gi",
    "code": "S23",
    "lines": [
      "穗深城际线"
    ]
  },
  "顺德北": {
    "name_zh": "顺德北",
    "name_en": "Shunde N.",
    "type": "station",
    "lat": 22.964447,
    "lon": 113.124193,
    "country": "gi",
    "code": "Z04",
    "lines": [
      "广肇城际线"
    ]
  },
  "张槎": {
    "name_zh": "张槎",
    "name_en": "Zhangcha",
    "type": "station",
    "lat": 23.011695,
    "lon": 113.0622,
    "country": "gi",
    "code": "Z05",
    "lines": [
      "广肇城际线"
    ]
  },
  "深圳北": {
    "name_zh": "深圳北",
    "name_en": "Shenzhen N.",
    "type": "station",
    "lat": 22.609954,
    "lon": 114.023289,
    "country": "cr",
    "code": "65860",
    "lines": [
      "京广高速线武广段",
      "杭深线甬深段"
    ]
  },
  "深圳": {
    "name_zh": "深圳",
    "name_en": "Shenzhen",
    "type": "station",
    "lat": 22.535525,
    "lon": 114.112668,
    "country": "cr",
    "code": "23819",
    "lines": [
      "广深城际线"
    ]
  },
  "福田": {
    "name_zh": "福田",
    "name_en": "Futian",
    "type": "station",
    "lat": 22.54089,
    "lon": 114.051891,
    "country": "cr",
    "code": "65891",
    "lines": [
      "广深港高速线"
    ]
  },
  "东莞": {
    "name_zh": "东莞",
    "name_en": "Dongguan",
    "type": "station",
    "lat": 23.092445,
    "lon": 113.854212,
    "country": "cr",
    "code": "23757",
    "lines": [
      "广深城际线"
    ]
  },
  "惠阳": {
    "name_zh": "惠阳",
    "name_en": "Huiyang",
    "type": "station",
    "lat": 22.787649,
    "lon": 114.487586,
    "country": "cr",
    "code": "25851",
    "lines": [
      "杭深线甬深段"
    ]
  },
  "佛山西": {
    "name_zh": "佛山西",
    "name_en": "Foshan W.",
    "type": "station",
    "lat": 23.082342,
    "lon": 113.028258,
    "country": "cr",
    "code": "24568",
    "lines": [
      "南广线",
      "广肇城际线"
    ]
  },
  "香港西九龙": {
    "name_zh": "香港西九龙",
    "name_en": "HongKong West Kowloon",
    "type": "station",
    "lat": 22.303882,
    "lon": 114.165443,
    "country": "cr",
    "code": "65896",
    "lines": [
      "广深港高速线"
    ]
  },
  "南宁": {
    "name_zh": "南宁",
    "name_en": "Nanning",
    "type": "station",
    "lat": 22.829139,
    "lon": 108.311523,
    "country": "cr",
    "code": "36428",
    "lines": [
      "南凭高速线",
      "南昆客运专线"
    ]
  },
  "南宁东": {
    "name_zh": "南宁东",
    "name_en": "Nanning E.",
    "type": "station",
    "lat": 22.84528,
    "lon": 108.409606,
    "country": "cr",
    "code": "36452",
    "lines": [
      "南珠高速线",
      "贵南高速线"
    ]
  },
  "吴圩机场": {
    "name_zh": "吴圩机场",
    "name_en": "Wuxu Airport",
    "type": "station",
    "lat": 22.602692,
    "lon": 108.18296,
    "country": "cr",
    "code": "36433",
    "lines": [
      "南凭高速线"
    ]
  },
  "崇左南": {
    "name_zh": "崇左南",
    "name_en": "Chongzuo S.",
    "type": "station",
    "lat": 22.359854,
    "lon": 107.390852,
    "country": "cr",
    "code": "36437",
    "lines": [
      "南凭高速线"
    ]
  },
  "玉林北": {
    "name_zh": "玉林北",
    "name_en": "Yulin N.",
    "type": "station",
    "lat": 22.724276,
    "lon": 110.245228,
    "country": "cr",
    "code": "3ba9bb5d",
    "lines": [
      "南珠高速线"
    ]
  },
  "玉林": {
    "name_zh": "玉林",
    "name_en": "Yulin",
    "type": "station",
    "lat": 22.599788,
    "lon": 110.153209,
    "country": "cr",
    "code": "37148",
    "lines": [
      "黎湛线"
    ]
  },
  "金城江": {
    "name_zh": "金城江",
    "name_en": "Jinchengjiang",
    "type": "station",
    "lat": 24.70179,
    "lon": 108.061382,
    "country": "cr",
    "code": "37376",
    "lines": [
      "黔桂线"
    ]
  },
  "河池西": {
    "name_zh": "河池西",
    "name_en": "Hechi W.",
    "type": "station",
    "lat": 24.714364,
    "lon": 108.171197,
    "country": "cr",
    "code": "47516",
    "lines": [
      "贵南高速线"
    ]
  },
  "美兰": {
    "name_zh": "美兰",
    "name_en": "Meilan Airport",
    "type": "station",
    "lat": 19.943528,
    "lon": 110.456955,
    "country": "cr",
    "code": "51444",
    "lines": [
      "海南东环高速线"
    ]
  },
  "城西": {
    "name_zh": "城西",
    "name_en": "Chengxi",
    "type": "station",
    "lat": 19.998119,
    "lon": 110.32769,
    "country": "cr",
    "code": "51450",
    "lines": [
      "海南东环高速线"
    ]
  },
  "海口东": {
    "name_zh": "海口东",
    "name_en": "Haikou E.",
    "type": "station",
    "lat": 19.985488,
    "lon": 110.338834,
    "country": "cr",
    "code": "51447",
    "lines": [
      "海南东环高速线"
    ]
  },
  "三亚": {
    "name_zh": "三亚",
    "name_en": "Sanya",
    "type": "station",
    "lat": 18.297786,
    "lon": 109.48898,
    "country": "cr",
    "code": "51481",
    "lines": [
      "海南东环高速线",
      "海南西环高速线"
    ]
  },
  "崖州": {
    "name_zh": "崖州",
    "name_en": "Yazhou",
    "type": "station",
    "lat": 18.37769,
    "lon": 109.153496,
    "country": "cr",
    "code": "51480",
    "lines": [
      "崖州联络线",
      "海南西环高速线"
    ]
  },
  "凤凰机场": {
    "name_zh": "凤凰机场",
    "name_en": "Fenghuang Airport",
    "type": "station",
    "lat": 18.310561,
    "lon": 109.404688,
    "country": "cr",
    "code": "51682",
    "lines": [
      "凤凰联络线",
      "海南西环高速线"
    ]
  },
  "南昌": {
    "name_zh": "南昌",
    "name_en": "Nanchang",
    "type": "station",
    "lat": 28.665071,
    "lon": 115.913113,
    "country": "cr",
    "code": "25424",
    "lines": [
      "京九线南昌段"
    ]
  },
  "新余北": {
    "name_zh": "新余北",
    "name_en": "Xinyu N.",
    "type": "station",
    "lat": 27.914737,
    "lon": 114.891878,
    "country": "cr",
    "code": "65643",
    "lines": [
      "沪昆高速线沪赣段",
      "沪昆高速线沪赣段"
    ]
  },
  "分宜": {
    "name_zh": "分宜",
    "name_en": "Fenyi",
    "type": "station",
    "lat": 27.809323,
    "lon": 114.658631,
    "country": "cr",
    "code": "33023",
    "lines": [
      "沪昆线"
    ]
  },
  "宜春": {
    "name_zh": "宜春",
    "name_en": "Yichun",
    "type": "station",
    "lat": 27.792421,
    "lon": 114.431339,
    "country": "cr",
    "code": "65646",
    "lines": [
      "沪昆线",
      "沪昆高速线赣湘段"
    ]
  },
  "长沙": {
    "name_zh": "长沙",
    "name_en": "Changsha",
    "type": "station",
    "lat": 28.197434,
    "lon": 113.007695,
    "country": "cr",
    "code": "22874",
    "lines": [
      "湘潭城际线",
      "长沙西城际线"
    ]
  },
  "长沙南": {
    "name_zh": "长沙南",
    "name_en": "Changsha S.",
    "type": "station",
    "lat": 28.14943,
    "lon": 113.058156,
    "country": "cr",
    "code": "65818",
    "lines": [
      "京广高速线武广段",
      "沪昆高速线赣湘段"
    ]
  },
  "谷山": {
    "name_zh": "谷山",
    "name_en": "Gushan",
    "type": "station",
    "lat": 28.233342,
    "lon": 112.902291,
    "country": "cr",
    "code": "65207",
    "lines": [
      "长沙西城际线"
    ]
  },
  "开福寺": {
    "name_zh": "开福寺",
    "name_en": "Kaifusi",
    "type": "station",
    "lat": 28.226739,
    "lon": 112.974665,
    "country": "cr",
    "code": "65213",
    "lines": [
      "长沙西城际线"
    ]
  },
  "湘潭": {
    "name_zh": "湘潭",
    "name_en": "Xiangtan",
    "type": "station",
    "lat": 27.878918,
    "lon": 112.906942,
    "country": "cr",
    "code": "35312",
    "lines": [
      "湘潭城际线"
    ]
  },
  "湘潭北": {
    "name_zh": "湘潭北",
    "name_en": "Xiangtan N.",
    "type": "station",
    "lat": 27.968399,
    "lon": 112.936745,
    "country": "cr",
    "code": "65660",
    "lines": [
      "沪昆高速线赣湘段"
    ]
  },
  "凤凰古城": {
    "name_zh": "凤凰古城",
    "name_en": "Fenghuang Ancient Town",
    "type": "station",
    "lat": 28.020293,
    "lon": 109.598798,
    "country": "cr",
    "code": "65609",
    "lines": [
      "张吉怀高速线"
    ]
  },
  "武汉": {
    "name_zh": "武汉",
    "name_en": "Wuhan",
    "type": "station",
    "lat": 30.60937,
    "lon": 114.419997,
    "country": "cr",
    "code": "65800",
    "lines": [
      "京广高速线武广段"
    ]
  },
  "汉口": {
    "name_zh": "汉口",
    "name_en": "Hankou",
    "type": "station",
    "lat": 30.620301,
    "lon": 114.250053,
    "country": "cr",
    "code": "21050",
    "lines": [
      "宁蓉线宁汉段",
      "宁蓉线汉渝段"
    ]
  },
  "武昌": {
    "name_zh": "武昌",
    "name_en": "Wuchang",
    "type": "station",
    "lat": 30.53277,
    "lon": 114.311764,
    "country": "cr",
    "code": "21077",
    "lines": [
      "京广线郑武段",
      "京广线武广段"
    ]
  },
  "宜昌北": {
    "name_zh": "宜昌北",
    "name_en": "Yichang N.",
    "type": "station",
    "lat": 30.748088,
    "lon": 111.469488,
    "country": "cr",
    "code": "45195",
    "lines": [
      "沪渝蓉高速线"
    ]
  },
  "郑州": {
    "name_zh": "郑州",
    "name_en": "Zhengzhou",
    "type": "station",
    "lat": 34.746928,
    "lon": 113.652007,
    "country": "cr",
    "code": "20750",
    "lines": [
      "京广线石郑段",
      "陇海线"
    ]
  },
  "郑州东": {
    "name_zh": "郑州东",
    "name_en": "Zhengzhou E.",
    "type": "station",
    "lat": 34.760065,
    "lon": 113.773225,
    "country": "cr",
    "code": "65773",
    "lines": [
      "郑州东北联络线",
      "京广高速线石武段",
      "徐兰高速线郑徐段",
      "徐兰高速线郑西段",
      "郑开城际线"
    ]
  },
  "开封": {
    "name_zh": "开封",
    "name_en": "Kaifeng",
    "type": "station",
    "lat": 34.771678,
    "lon": 114.348279,
    "country": "cr",
    "code": "38774",
    "lines": [
      "陇海线",
      "郑开城际线"
    ]
  },
  "洛阳": {
    "name_zh": "洛阳",
    "name_en": "Luoyang",
    "type": "station",
    "lat": 34.686405,
    "lon": 112.430106,
    "country": "cr",
    "code": "39173",
    "lines": [
      "陇海线"
    ]
  },
  "安阳东": {
    "name_zh": "安阳东",
    "name_en": "Anyang E.",
    "type": "station",
    "lat": 36.08474,
    "lon": 114.447441,
    "country": "cr",
    "code": "22531",
    "lines": [
      "京广高速线石武段"
    ]
  },
  "焦作": {
    "name_zh": "焦作",
    "name_en": "Jiaozuo",
    "type": "station",
    "lat": 35.222383,
    "lon": 113.22855,
    "country": "cr",
    "code": "38402",
    "lines": [
      "郑太客运专线"
    ]
  },
  "济源": {
    "name_zh": "济源",
    "name_en": "Jiyuan",
    "type": "station",
    "lat": 35.110954,
    "lon": 112.568272,
    "country": "cr",
    "code": "44114",
    "lines": [
      "焦柳线"
    ]
  },
  "洛阳龙门": {
    "name_zh": "洛阳龙门",
    "name_en": "Luoyang Longmen",
    "type": "station",
    "lat": 34.595597,
    "lon": 112.454376,
    "country": "cr",
    "code": "39053",
    "lines": [
      "徐兰高速线郑西段"
    ]
  },
  "太原": {
    "name_zh": "太原",
    "name_en": "Taiyuan",
    "type": "station",
    "lat": 37.859785,
    "lon": 112.581228,
    "country": "cr",
    "code": "26447",
    "lines": [
      "石太客运专线"
    ]
  },
  "重庆北": {
    "name_zh": "重庆北",
    "name_en": "Chongqing N.",
    "type": "station",
    "lat": 29.612607,
    "lon": 106.547387,
    "country": "cr",
    "code": "35143",
    "lines": [
      "宁蓉线汉渝段"
    ]
  },
  "重庆西": {
    "name_zh": "重庆西",
    "name_en": "Chongqing W.",
    "type": "station",
    "lat": 29.503728,
    "lon": 106.433378,
    "country": "cr",
    "code": "30077",
    "lines": [
      "井西线"
    ]
  },
  "沙坪坝": {
    "name_zh": "沙坪坝",
    "name_en": "Shapingba",
    "type": "station",
    "lat": 29.556784,
    "lon": 106.457283,
    "country": "cr",
    "code": "47066",
    "lines": [
      "成渝高速线"
    ]
  },
  "贵阳": {
    "name_zh": "贵阳",
    "name_en": "Guiyang",
    "type": "station",
    "lat": 26.5604,
    "lon": 106.69866,
    "country": "cr",
    "code": "37646",
    "lines": [
      "贵阳客车线",
      "渝贵线"
    ]
  },
  "贵阳北": {
    "name_zh": "贵阳北",
    "name_en": "Guiyang N.",
    "type": "station",
    "lat": 26.623156,
    "lon": 106.670656,
    "country": "cr",
    "code": "47483",
    "lines": [
      "沪昆高速线贵昆段",
      "渝贵线",
      "成贵贵阳北联络线"
    ]
  },
  "贵安": {
    "name_zh": "贵安",
    "name_en": "Gui'an",
    "type": "station",
    "lat": 26.469122,
    "lon": 106.481856,
    "country": "cr",
    "code": "65501",
    "lines": [
      "沪昆高速线贵昆段",
      "贵阳环线"
    ]
  },
  "花溪大学城": {
    "name_zh": "花溪大学城",
    "name_en": "Huaxi University Town",
    "type": "station",
    "lat": 26.397133,
    "lon": 106.622192,
    "country": "cr",
    "code": "65476",
    "lines": [
      "贵阳环线"
    ]
  },
  "镇远": {
    "name_zh": "镇远",
    "name_en": "Zhenyuan",
    "type": "station",
    "lat": 27.038084,
    "lon": 108.405681,
    "country": "cr",
    "code": "35624",
    "lines": [
      "沪昆线"
    ]
  },
  "成都东": {
    "name_zh": "成都东",
    "name_en": "Chengdu E.",
    "type": "station",
    "lat": 30.63145,
    "lon": 104.140165,
    "country": "cr",
    "code": "46543",
    "lines": [
      "西成客运专线四川段",
      "成贵客运专线成都段"
    ]
  },
  "成都南": {
    "name_zh": "成都南",
    "name_en": "Chengdu S.",
    "type": "station",
    "lat": 30.607803,
    "lon": 104.066034,
    "country": "cr",
    "code": "47675",
    "lines": [
      "成昆线",
      "成贵客运专线成都段"
    ]
  },
  "双流机场": {
    "name_zh": "双流机场",
    "name_en": "Shuangliu Airport",
    "type": "station",
    "lat": 30.57191,
    "lon": 103.954297,
    "country": "cr",
    "code": "47621",
    "lines": [
      "成贵客运专线成都段"
    ]
  },
  "都江堰": {
    "name_zh": "都江堰",
    "name_en": "Dujiangyan",
    "type": "station",
    "lat": 30.960216,
    "lon": 103.637,
    "country": "cr",
    "code": "46063",
    "lines": [
      "新成灌线"
    ]
  },
  "犀浦": {
    "name_zh": "犀浦",
    "name_en": "Xipu",
    "type": "station",
    "lat": 30.759841,
    "lon": 103.970208,
    "country": "cr",
    "code": "46042",
    "lines": [
      "新成灌线"
    ]
  },
  "广汉北": {
    "name_zh": "广汉北",
    "name_en": "Guanghan N.",
    "type": "station",
    "lat": 31.011319,
    "lon": 104.272993,
    "country": "cr",
    "code": "47607",
    "lines": [
      "西成客运专线四川段"
    ]
  },
  "黄龙九寨": {
    "name_zh": "黄龙九寨",
    "name_en": "Huanglong Jiuzhai",
    "type": "station",
    "lat": 32.747465,
    "lon": 103.612973,
    "country": "cr",
    "code": "45587",
    "lines": [
      "川青线"
    ]
  },
  "西昌西": {
    "name_zh": "西昌西",
    "name_en": "Xichang W.",
    "type": "station",
    "lat": 27.871463,
    "lon": 102.160204,
    "country": "cr",
    "code": "46140",
    "lines": [
      "峨广线"
    ]
  },
  "攀枝花南": {
    "name_zh": "攀枝花南",
    "name_en": "Panzhihua S.",
    "type": "station",
    "lat": 26.471606,
    "lon": 101.74648,
    "country": "cr",
    "code": "46158",
    "lines": [
      "峨广线"
    ]
  },
  "资阳北": {
    "name_zh": "资阳北",
    "name_en": "Ziyang N.",
    "type": "station",
    "lat": 30.128504,
    "lon": 104.679853,
    "country": "cr",
    "code": "46545",
    "lines": [
      "成渝高速线"
    ]
  },
  "昆明": {
    "name_zh": "昆明",
    "name_en": "Kunming",
    "type": "station",
    "lat": 25.017766,
    "lon": 102.720356,
    "country": "cr",
    "code": "48197",
    "lines": [
      "广昆线",
      "南昆客运专线"
    ]
  },
  "昆明南": {
    "name_zh": "昆明南",
    "name_en": "Kunming S.",
    "type": "station",
    "lat": 24.873557,
    "lon": 102.86011,
    "country": "cr",
    "code": "48778",
    "lines": [
      "中老昆万线",
      "沪昆高速线贵昆段",
      "南昆客运专线"
    ]
  },
  "普洱": {
    "name_zh": "普洱",
    "name_en": "Pu'er",
    "type": "station",
    "lat": 22.778273,
    "lon": 100.940768,
    "country": "cr",
    "code": "48647",
    "lines": [
      "中老昆万线"
    ]
  },
  "丽江": {
    "name_zh": "丽江",
    "name_en": "Lijiang",
    "type": "station",
    "lat": 26.81422,
    "lon": 100.251512,
    "country": "cr",
    "code": "48417",
    "lines": [
      "滇藏线"
    ]
  },
  "香格里拉": {
    "name_zh": "香格里拉",
    "name_en": "Shangri-La",
    "type": "station",
    "lat": 27.813351,
    "lon": 99.688547,
    "country": "cr",
    "code": "49534",
    "lines": [
      "滇藏线"
    ]
  },
  "宝鸡": {
    "name_zh": "宝鸡",
    "name_en": "Baoji",
    "type": "station",
    "lat": 34.374616,
    "lon": 107.148467,
    "country": "cr",
    "code": "39629",
    "lines": [
      "陇海线",
      "宝成线"
    ]
  },
  "汉中": {
    "name_zh": "汉中",
    "name_en": "Hanzhong",
    "type": "station",
    "lat": 33.09259,
    "lon": 107.025408,
    "country": "cr",
    "code": "45713",
    "lines": [
      "阳安线",
      "西成客运专线陕西段"
    ]
  },
  "兰州西": {
    "name_zh": "兰州西",
    "name_en": "Lanzhou W.",
    "type": "station",
    "lat": 36.069222,
    "lon": 103.74973,
    "country": "cr",
    "code": "41492",
    "lines": [
      "徐兰高速线宝兰段",
      "兰新客运专线"
    ]
  },
  "天水": {
    "name_zh": "天水",
    "name_en": "Tianshui",
    "type": "station",
    "lat": 34.566714,
    "lon": 105.894849,
    "country": "cr",
    "code": "39701",
    "lines": [
      "陇海线"
    ]
  },
  "天水南": {
    "name_zh": "天水南",
    "name_en": "Tianshui S.",
    "type": "station",
    "lat": 34.549947,
    "lon": 105.854066,
    "country": "cr",
    "code": "38988",
    "lines": [
      "徐兰高速线宝兰段"
    ]
  },
  "银川": {
    "name_zh": "银川",
    "name_en": "Yinchuan",
    "type": "station",
    "lat": 38.490755,
    "lon": 106.170352,
    "country": "cr",
    "code": "14846",
    "lines": [
      "包兰线",
      "定银线"
    ]
  },
  "格尔木": {
    "name_zh": "格尔木",
    "name_en": "Golmud",
    "type": "station",
    "lat": 36.383439,
    "lon": 94.906191,
    "country": "cr",
    "code": "43787",
    "lines": [
      "青藏线"
    ]
  },
  "海东西": {
    "name_zh": "海东西",
    "name_en": "Haidong W.",
    "type": "station",
    "lat": 36.509383,
    "lon": 102.052982,
    "country": "cr",
    "code": "41521",
    "lines": [
      "兰新客运专线"
    ]
  },
  "拉萨": {
    "name_zh": "拉萨",
    "name_en": "Lhasa",
    "type": "station",
    "lat": 29.625868,
    "lon": 91.068171,
    "country": "cr",
    "code": "44083",
    "lines": [
      "青藏线",
      "拉日线"
    ]
  },
  "日喀则": {
    "name_zh": "日喀则",
    "name_en": "Shigatse",
    "type": "station",
    "lat": 29.224193,
    "lon": 88.91301,
    "country": "cr",
    "code": "43936",
    "lines": [
      "拉日线"
    ]
  },
  "天王寺": {
    "name_zh": "天王寺",
    "name_en": "Tennoji",
    "type": "station",
    "lat": 34.647331,
    "lon": 135.515242,
    "country": "jr",
    "code": "O01",
    "lines": [
      "JR大阪环状线",
      "JR大阪环状线",
      "JR阪和线"
    ]
  },
  "大阪": {
    "name_zh": "大阪",
    "name_en": "Osaka",
    "type": "station",
    "lat": 34.702221,
    "lon": 135.495576,
    "country": "jr",
    "code": "O11",
    "lines": [
      "JR东海道线",
      "JR大阪环状线"
    ]
  },
  "西九条": {
    "name_zh": "西九条",
    "name_en": "Nishi-Kujo",
    "type": "station",
    "lat": 34.682271,
    "lon": 135.466318,
    "country": "jr",
    "code": "O14",
    "lines": [
      "JR大阪环状线",
      "阪神难波线"
    ]
  },
  "今宫": {
    "name_zh": "今宫",
    "name_en": "Imamia",
    "type": "station",
    "lat": 34.653951,
    "lon": 135.493028,
    "country": "jr",
    "code": "O18",
    "lines": [
      "JR大阪环状线",
      "JR大和路线"
    ]
  },
  "新今宫": {
    "name_zh": "新今宫",
    "name_en": "Shin-Imamia",
    "type": "station",
    "lat": 34.649843,
    "lon": 135.502195,
    "country": "jr",
    "code": "O19",
    "lines": [
      "JR大阪环状线",
      "南海本线"
    ]
  },
  "JR难波": {
    "name_zh": "JR难波",
    "name_en": "JR Namba",
    "type": "station",
    "lat": 34.666478,
    "lon": 135.495326,
    "country": "jr",
    "code": "Q17",
    "lines": [
      "JR大和路线"
    ]
  },
  "和歌山": {
    "name_zh": "和歌山",
    "name_en": "Wakayama",
    "type": "station",
    "lat": 34.232202,
    "lon": 135.191582,
    "country": "jr",
    "code": "R54",
    "lines": [
      "JR阪和线",
      "JR纪势线"
    ]
  },
  "敦贺": {
    "name_zh": "敦贺",
    "name_en": "Tsuruga",
    "type": "station",
    "lat": 35.644882,
    "lon": 136.076392,
    "country": "jr",
    "code": "A01",
    "lines": [
      "JR北陆线"
    ]
  },
  "草津": {
    "name_zh": "草津",
    "name_en": "",
    "type": "station",
    "lat": 35.02256,
    "lon": 135.961824,
    "country": "jr",
    "code": "A24",
    "lines": [
      "JR东海道线",
      "JR草津线"
    ]
  },
  "石山": {
    "name_zh": "石山",
    "name_en": "Ishiyama",
    "type": "station",
    "lat": 34.979931,
    "lon": 135.900007,
    "country": "jr",
    "code": "A27",
    "lines": [
      "JR东海道线"
    ]
  },
  "三宫": {
    "name_zh": "三宫",
    "name_en": "Sannomiya",
    "type": "station",
    "lat": 34.694863,
    "lon": 135.195082,
    "country": "jr",
    "code": "A61",
    "lines": [
      "JR山阳线"
    ]
  },
  "山科": {
    "name_zh": "山科",
    "name_en": "Yamashina",
    "type": "station",
    "lat": 34.992633,
    "lon": 135.817226,
    "country": "jr",
    "code": "A30",
    "lines": [
      "JR东海道线",
      "JR湖西线"
    ]
  },
  "京都": {
    "name_zh": "京都",
    "name_en": "Kyoto",
    "type": "station",
    "lat": 34.985363,
    "lon": 135.758775,
    "country": "jr",
    "code": "A31",
    "lines": [
      "JR东海道线",
      "JR奈良线",
      "JR山阴线"
    ]
  },
  "神户": {
    "name_zh": "神户",
    "name_en": "Kobe",
    "type": "station",
    "lat": 34.67929,
    "lon": 135.178289,
    "country": "jr",
    "code": "A63",
    "lines": [
      "JR山阳线"
    ]
  },
  "姬路": {
    "name_zh": "姬路",
    "name_en": "Himeji",
    "type": "station",
    "lat": 34.826887,
    "lon": 134.690242,
    "country": "jr",
    "code": "A85",
    "lines": [
      "JR山阳线"
    ]
  },
  "梅小路京都西": {
    "name_zh": "梅小路京都西",
    "name_en": "Umekoji-Kyoto Nishi",
    "type": "station",
    "lat": 34.988649,
    "lon": 135.743197,
    "country": "jr",
    "code": "E02",
    "lines": [
      "JR山阴线"
    ]
  },
  "嵯峨岚山": {
    "name_zh": "嵯峨岚山",
    "name_en": "Saga Arashiyama",
    "type": "station",
    "lat": 35.018779,
    "lon": 135.681415,
    "country": "jr",
    "code": "E08",
    "lines": [
      "JR山阴线"
    ]
  },
  "柘植": {
    "name_zh": "柘植",
    "name_en": "",
    "type": "station",
    "lat": 34.846851,
    "lon": 136.25596,
    "country": "jr",
    "code": "C01",
    "lines": [
      "JR草津线",
      "JR关西线"
    ]
  },
  "加茂": {
    "name_zh": "加茂",
    "name_en": "Kamo",
    "type": "station",
    "lat": 34.752709,
    "lon": 135.869854,
    "country": "jr",
    "code": "Q39",
    "lines": [
      "JR关西线"
    ]
  },
  "JR奈良": {
    "name_zh": "JR奈良",
    "name_en": "JR Nara",
    "type": "station",
    "lat": 34.680812,
    "lon": 135.818943,
    "country": "jr",
    "code": "Q36",
    "lines": [
      "JR关西线"
    ]
  },
  "久宝寺": {
    "name_zh": "久宝寺",
    "name_en": "Kyuhoji",
    "type": "station",
    "lat": 34.622444,
    "lon": 135.584024,
    "country": "jr",
    "code": "Q24",
    "lines": [
      "JR关西线"
    ]
  },
  "关西空港": {
    "name_zh": "关西空港",
    "name_en": "Kansai Airport",
    "type": "station",
    "lat": 34.435868,
    "lon": 135.243486,
    "country": "nk",
    "code": "032",
    "lines": [
      "南海机场线"
    ]
  },
  "加太": {
    "name_zh": "加太",
    "name_en": "Kada",
    "type": "station",
    "lat": 34.275105,
    "lon": 135.080823,
    "country": "nk",
    "code": "447",
    "lines": [
      "南海加太线"
    ]
  },
  "和歌山市": {
    "name_zh": "和歌山市",
    "name_en": "Wakayamashi",
    "type": "station",
    "lat": 34.236792,
    "lon": 135.167051,
    "country": "nk",
    "code": "045",
    "lines": [
      "JR纪势线",
      "南海本线"
    ]
  },
  "淀屋桥": {
    "name_zh": "淀屋桥",
    "name_en": "Yodoyabashi",
    "type": "station",
    "lat": 34.692486,
    "lon": 135.501377,
    "country": "kh",
    "code": "001",
    "lines": [
      "京阪本线"
    ]
  },
  "三条": {
    "name_zh": "三条",
    "name_en": "Sanjo",
    "type": "station",
    "lat": 35.009015,
    "lon": 135.772334,
    "country": "kh",
    "code": "040",
    "lines": [
      "京阪本线"
    ]
  },
  "近铁奈良": {
    "name_zh": "近铁奈良",
    "name_en": "KT Nara",
    "type": "station",
    "lat": 34.684133,
    "lon": 135.828556,
    "country": "kt",
    "code": "A28",
    "lines": [
      "近铁奈良线"
    ]
  },
  "近铁日本桥": {
    "name_zh": "近铁日本桥",
    "name_en": "KT Nippombashi",
    "type": "station",
    "lat": 34.666901,
    "lon": 135.505701,
    "country": "kt",
    "code": "A02",
    "lines": [
      "近铁奈良线"
    ]
  },
  "大阪梅田": {
    "name_zh": "大阪梅田",
    "name_en": "Osaka Umeda",
    "type": "station",
    "lat": 34.705282,
    "lon": 135.498392,
    "country": "hk",
    "code": "001",
    "lines": [
      "阪急宝塚线"
    ]
  },
  "庄内": {
    "name_zh": "庄内",
    "name_en": "Shonai",
    "type": "station",
    "lat": 34.750263,
    "lon": 135.475038,
    "country": "hk",
    "code": "042",
    "lines": [
      "阪急宝塚线"
    ]
  },
  "阪神三宫": {
    "name_zh": "阪神三宫",
    "name_en": "HS Sannomiya",
    "type": "station",
    "lat": 34.693665,
    "lon": 135.195434,
    "country": "hs",
    "code": "032",
    "lines": [
      "阪神本线"
    ]
  },
  "米原": {
    "name_zh": "米原",
    "name_en": "",
    "type": "junction",
    "lat": 35.314809,
    "lon": 136.290175,
    "country": "jr",
    "code": "A12",
    "lines": [
      "JR北陆线",
      "JR东海道线"
    ]
  },
  "近江盐津": {
    "name_zh": "近江盐津",
    "name_en": "",
    "type": "junction",
    "lat": 35.53911,
    "lon": 136.151494,
    "country": "jr",
    "code": "A03",
    "lines": [
      "JR北陆线",
      "JR湖西线"
    ]
  },
  "木津": {
    "name_zh": "木津",
    "name_en": "",
    "type": "junction",
    "lat": 34.735856,
    "lon": 135.824919,
    "country": "jr",
    "code": "D19",
    "lines": [
      "JR奈良线",
      "JR关西线"
    ]
  },
  "阪神尼崎": {
    "name_zh": "阪神尼崎",
    "name_en": "",
    "type": "junction",
    "lat": 34.718591,
    "lon": 135.417325,
    "country": "hs",
    "code": "HS09",
    "lines": [
      "阪神本线",
      "阪神难波线"
    ]
  },
  "纪之川": {
    "name_zh": "纪之川",
    "name_en": "",
    "type": "junction",
    "lat": 34.255191,
    "lon": 135.165396,
    "country": "nk",
    "code": "044",
    "lines": [
      "南海加太线",
      "南海本线"
    ]
  },
  "泉佐野": {
    "name_zh": "泉佐野",
    "name_en": "",
    "type": "junction",
    "lat": 34.411187,
    "lon": 135.316983,
    "country": "nk",
    "code": "030",
    "lines": [
      "南海本线",
      "南海机场线"
    ]
  },
  "陆渡所": {
    "name_zh": "陆渡所",
    "name_en": "",
    "type": "junction",
    "lat": 31.476506,
    "lon": 121.206389,
    "country": "cr",
    "code": "16567",
    "lines": [
      "太仓联络线",
      "沪苏通线"
    ]
  },
  "宣城": {
    "name_zh": "宣城",
    "name_en": "Xuancheng",
    "type": "junction",
    "lat": 30.949536,
    "lon": 118.76913,
    "country": "cr",
    "code": "31319",
    "lines": [
      "宣绩高速线",
      "皖赣线",
      "宣杭线"
    ]
  },
  "绩溪北": {
    "name_zh": "绩溪北",
    "name_en": "Jixi N.",
    "type": "junction",
    "lat": 30.073797,
    "lon": 118.566754,
    "country": "cr",
    "code": "34126",
    "lines": [
      "宣绩高速线",
      "杭昌高速线",
      "合福高速线合黄段"
    ]
  },
  "三星堆": {
    "name_zh": "三星堆",
    "name_en": "Sanxingdui",
    "type": "junction",
    "lat": 30.943766,
    "lon": 104.208086,
    "country": "cr",
    "code": "45573",
    "lines": [
      "川青线",
      "青三联络线"
    ]
  },
  "康山所": {
    "name_zh": "康山所",
    "name_en": "",
    "type": "junction",
    "lat": 30.81879,
    "lon": 120.044329,
    "country": "cr",
    "code": "503ae511",
    "lines": [
      "康山联络线",
      "沪苏湖高速线"
    ]
  },
  "妙西镇所": {
    "name_zh": "妙西镇所",
    "name_en": "",
    "type": "junction",
    "lat": 30.797443,
    "lon": 120.017234,
    "country": "cr",
    "code": "c85ef475",
    "lines": [
      "康山联络线",
      "合杭高速线"
    ]
  },
  "桐庐东": {
    "name_zh": "桐庐东",
    "name_en": "Tonglu E.",
    "type": "junction",
    "lat": 29.857599,
    "lon": 119.760292,
    "country": "cr",
    "code": "66276",
    "lines": [
      "杭温高速线杭义段",
      "桐庐联络线",
      "合杭高速线"
    ]
  },
  "永嘉所": {
    "name_zh": "永嘉所",
    "name_en": "",
    "type": "junction",
    "lat": 28.072229,
    "lon": 120.718614,
    "country": "cr",
    "code": "f77128ce",
    "lines": [
      "杭温高速线义温段",
      "永嘉联络线"
    ]
  },
  "桐庐": {
    "name_zh": "桐庐",
    "name_en": "Tonglu",
    "type": "junction",
    "lat": 29.790478,
    "lon": 119.729569,
    "country": "cr",
    "code": "32372",
    "lines": [
      "桐庐联络线",
      "杭昌高速线"
    ]
  },
  "胜芳": {
    "name_zh": "胜芳",
    "name_en": "Shengfang",
    "type": "junction",
    "lat": 39.137775,
    "lon": 116.753448,
    "country": "cr",
    "code": "20381",
    "lines": [
      "津兴城际线",
      "津霸线"
    ]
  },
  "固安东": {
    "name_zh": "固安东",
    "name_en": "Gu'an E.",
    "type": "junction",
    "lat": 39.370921,
    "lon": 116.398003,
    "country": "cr",
    "code": "21160",
    "lines": [
      "津兴城际线",
      "京雄城际线"
    ]
  },
  "南通西": {
    "name_zh": "南通西",
    "name_en": "Nantong W.",
    "type": "junction",
    "lat": 32.103157,
    "lon": 120.760711,
    "country": "cr",
    "code": "16555",
    "lines": [
      "盐通高速线",
      "沪苏通线"
    ]
  },
  "高辛庄所": {
    "name_zh": "高辛庄所",
    "name_en": "",
    "type": "junction",
    "lat": 39.925177,
    "lon": 116.725417,
    "country": "cr",
    "code": "d5c7787f",
    "lines": [
      "通燕联络线",
      "京哈线"
    ]
  },
  "北刘各庄所": {
    "name_zh": "北刘各庄所",
    "name_en": "",
    "type": "junction",
    "lat": 39.933754,
    "lon": 116.761143,
    "country": "cr",
    "code": "1036923d",
    "lines": [
      "通燕联络线",
      "京唐城际线"
    ]
  },
  "青白江东": {
    "name_zh": "青白江东",
    "name_en": "Qingbaijiang E.",
    "type": "junction",
    "lat": 30.896903,
    "lon": 104.223226,
    "country": "cr",
    "code": "47609",
    "lines": [
      "青三联络线",
      "西成客运专线四川段"
    ]
  },
  "龙形村所": {
    "name_zh": "龙形村所",
    "name_en": "",
    "type": "junction",
    "lat": 27.495965,
    "lon": 109.961417,
    "country": "cr",
    "code": "352d5dea",
    "lines": [
      "张吉怀高速线",
      "龙怀联络线"
    ]
  },
  "沙堤所": {
    "name_zh": "沙堤所",
    "name_en": "",
    "type": "junction",
    "lat": 29.196936,
    "lon": 110.439738,
    "country": "cr",
    "code": "1f97993f",
    "lines": [
      "张吉怀高速线",
      "张家界西联络线"
    ]
  },
  "张家界西": {
    "name_zh": "张家界西",
    "name_en": "Zhangjiajie W.",
    "type": "junction",
    "lat": 29.116602,
    "lon": 110.497768,
    "country": "cr",
    "code": "26777",
    "lines": [
      "张家界西联络线",
      "渝厦高速线"
    ]
  },
  "黄金园所": {
    "name_zh": "黄金园所",
    "name_en": "",
    "type": "junction",
    "lat": 28.277995,
    "lon": 112.781419,
    "country": "cr",
    "code": "4eb13889",
    "lines": [
      "渝厦高速线",
      "长黄联络线"
    ]
  },
  "怀化南": {
    "name_zh": "怀化南",
    "name_en": "Huaihua S.",
    "type": "junction",
    "lat": 27.515508,
    "lon": 109.988987,
    "country": "cr",
    "code": "65678",
    "lines": [
      "龙怀联络线",
      "沪昆高速线赣湘段"
    ]
  },
  "凤凰西所": {
    "name_zh": "凤凰西所",
    "name_en": "",
    "type": "junction",
    "lat": 18.309082,
    "lon": 109.366121,
    "country": "cr",
    "code": "f1f7e412",
    "lines": [
      "凤凰联络线",
      "海南西环线"
    ]
  },
  "崖州湾": {
    "name_zh": "崖州湾",
    "name_en": "Yazhou Bay",
    "type": "junction",
    "lat": 18.354942,
    "lon": 109.180836,
    "country": "cr",
    "code": "454ca49b",
    "lines": [
      "崖州联络线",
      "海南西环线"
    ]
  },
  "龙里": {
    "name_zh": "龙里",
    "name_en": "Longli",
    "type": "junction",
    "lat": 26.451631,
    "lon": 106.968905,
    "country": "cr",
    "code": "37580",
    "lines": [
      "贵阳客车线",
      "沪昆线"
    ]
  },
  "秦祺村所": {
    "name_zh": "秦祺村所",
    "name_en": "",
    "type": "junction",
    "lat": 26.499658,
    "lon": 106.784258,
    "country": "cr",
    "code": "45c67dbe",
    "lines": [
      "贵阳客车线",
      "秦双联络线"
    ]
  },
  "广州莲花山": {
    "name_zh": "广州莲花山",
    "name_en": "Guangzhou Lianhuashan",
    "type": "junction",
    "lat": 23.004813,
    "lon": 113.486935,
    "country": "gi",
    "code": "H05",
    "lines": [
      "琶莲城际线",
      "广惠城际线"
    ]
  },
  "番禺": {
    "name_zh": "番禺",
    "name_en": "Panyu",
    "type": "junction",
    "lat": 22.989839,
    "lon": 113.267643,
    "country": "gi",
    "code": "D01",
    "lines": [
      "广惠城际线",
      "广肇城际线"
    ]
  },
  "长沙西": {
    "name_zh": "长沙西",
    "name_en": "Changsha W.",
    "type": "junction",
    "lat": 28.265408,
    "lon": 112.820446,
    "country": "cr",
    "code": "65201",
    "lines": [
      "长黄联络线",
      "长沙西城际线"
    ]
  },
  "长阳村所": {
    "name_zh": "长阳村所",
    "name_en": "",
    "type": "junction",
    "lat": 39.771151,
    "lon": 116.175211,
    "country": "cr",
    "code": "2108bd63",
    "lines": [
      "京广线京石段",
      "西长线"
    ]
  },
  "柳辛庄": {
    "name_zh": "柳辛庄",
    "name_en": "Liuxinzhuang",
    "type": "junction",
    "lat": 38.099931,
    "lon": 114.50389,
    "country": "cr",
    "code": "20369",
    "lines": [
      "京广线京石段",
      "石家庄西北环线"
    ]
  },
  "汉西": {
    "name_zh": "汉西",
    "name_en": "Hanxi",
    "type": "junction",
    "lat": 30.593617,
    "lon": 114.222257,
    "country": "cr",
    "code": "21059",
    "lines": [
      "京广线郑武段",
      "汉西联络线"
    ]
  },
  "武昌南": {
    "name_zh": "武昌南",
    "name_en": "Wuchang S.",
    "type": "junction",
    "lat": 30.473889,
    "lon": 114.296903,
    "country": "cr",
    "code": "21089",
    "lines": [
      "京广线武广段",
      "武昌南环线"
    ]
  },
  "黄土坡所": {
    "name_zh": "黄土坡所",
    "name_en": "",
    "type": "junction",
    "lat": 39.768604,
    "lon": 116.279925,
    "country": "cr",
    "code": "1cfdd7a5",
    "lines": [
      "京沪线",
      "京九线京昌段"
    ]
  },
  "汉沟镇": {
    "name_zh": "汉沟镇",
    "name_en": "Hangou",
    "type": "junction",
    "lat": 39.298274,
    "lon": 117.102822,
    "country": "cr",
    "code": "10091",
    "lines": [
      "京沪线",
      "津蓟线"
    ]
  },
  "桥南所": {
    "name_zh": "桥南所",
    "name_en": "",
    "type": "junction",
    "lat": 36.704278,
    "lon": 116.827011,
    "country": "cr",
    "code": "16283",
    "lines": [
      "京沪线",
      "京沪济南线"
    ]
  },
  "党家庄": {
    "name_zh": "党家庄",
    "name_en": "Dangjiazhuang",
    "type": "junction",
    "lat": 36.578649,
    "lon": 116.89784,
    "country": "cr",
    "code": "16319",
    "lines": [
      "京沪线",
      "京沪济南线"
    ]
  },
  "徐州": {
    "name_zh": "徐州",
    "name_en": "Xuzhou",
    "type": "junction",
    "lat": 34.266126,
    "lon": 117.202226,
    "country": "cr",
    "code": "16628",
    "lines": [
      "京沪线",
      "陇海线"
    ]
  },
  "林场": {
    "name_zh": "林场",
    "name_en": "Linchang",
    "type": "junction",
    "lat": 32.162457,
    "lon": 118.675223,
    "country": "cr",
    "code": "16802",
    "lines": [
      "京沪线",
      "宁启线"
    ]
  },
  "黄渡": {
    "name_zh": "黄渡",
    "name_en": "Huangdu",
    "type": "junction",
    "lat": 31.295703,
    "lon": 121.235915,
    "country": "cr",
    "code": "30566",
    "lines": [
      "京沪线",
      "黄封线",
      "沪苏通线"
    ]
  },
  "北园": {
    "name_zh": "北园",
    "name_en": "Beiyuan",
    "type": "junction",
    "lat": 36.690379,
    "lon": 116.997805,
    "country": "cr",
    "code": "16292",
    "lines": [
      "京沪济南线",
      "京胶联络线"
    ]
  },
  "商丘": {
    "name_zh": "商丘",
    "name_en": "Shangqiu",
    "type": "junction",
    "lat": 34.447534,
    "lon": 115.652543,
    "country": "cr",
    "code": "38702",
    "lines": [
      "陇海线",
      "商丘西南联络线"
    ]
  },
  "圃田西": {
    "name_zh": "圃田西",
    "name_en": "Putian W.",
    "type": "junction",
    "lat": 34.734952,
    "lon": 113.694233,
    "country": "cr",
    "code": "38810",
    "lines": [
      "陇海线",
      "郑州东北联络线"
    ]
  },
  "兰州": {
    "name_zh": "兰州",
    "name_en": "Lanzhou",
    "type": "junction",
    "lat": 36.035735,
    "lon": 103.848009,
    "country": "cr",
    "code": "39872",
    "lines": [
      "陇海线",
      "兰青线"
    ]
  },
  "商丘南": {
    "name_zh": "商丘南",
    "name_en": "Shangqiu S.",
    "type": "junction",
    "lat": 34.409376,
    "lon": 115.699022,
    "country": "cr",
    "code": "24890",
    "lines": [
      "京九线京昌段",
      "商丘西南联络线"
    ]
  },
  "阜阳北": {
    "name_zh": "阜阳北",
    "name_en": "Fuyang N.",
    "type": "junction",
    "lat": 33.0192,
    "lon": 115.862414,
    "country": "cr",
    "code": "25067",
    "lines": [
      "京九线京昌段",
      "阜阳西联络线"
    ]
  },
  "阜阳": {
    "name_zh": "阜阳",
    "name_en": "Fuyang",
    "type": "junction",
    "lat": 32.916619,
    "lon": 115.861746,
    "country": "cr",
    "code": "25104",
    "lines": [
      "京九线京昌段",
      "阜淮线",
      "阜阳西联络线"
    ]
  },
  "九江": {
    "name_zh": "九江",
    "name_en": "Jiujiang",
    "type": "junction",
    "lat": 29.706467,
    "lon": 116.001822,
    "country": "cr",
    "code": "25322",
    "lines": [
      "京九线京昌段",
      "衢九线"
    ]
  },
  "九江西": {
    "name_zh": "九江西",
    "name_en": "Jiujiang W.",
    "type": "junction",
    "lat": 29.644494,
    "lon": 115.888598,
    "country": "cr",
    "code": "25324",
    "lines": [
      "京九线京昌段",
      "武九线"
    ]
  },
  "乐化": {
    "name_zh": "乐化",
    "name_en": "Lehua",
    "type": "junction",
    "lat": 28.817378,
    "lon": 115.865901,
    "country": "cr",
    "code": "25397",
    "lines": [
      "京九线京昌段",
      "南昌西环线"
    ]
  },
  "向塘": {
    "name_zh": "向塘",
    "name_en": "Xiangtang",
    "type": "junction",
    "lat": 28.446298,
    "lon": 115.956186,
    "country": "cr",
    "code": "25454",
    "lines": [
      "京九线南昌段",
      "南昌西环线",
      "向东D线"
    ]
  },
  "三江镇": {
    "name_zh": "三江镇",
    "name_en": "Sanjiangzhen",
    "type": "junction",
    "lat": 28.311867,
    "lon": 115.976545,
    "country": "cr",
    "code": "25487",
    "lines": [
      "京九线南昌段",
      "昌福线"
    ]
  },
  "北京东": {
    "name_zh": "北京东",
    "name_en": "Beijing E.",
    "type": "junction",
    "lat": 39.901533,
    "lon": 116.478422,
    "country": "cr",
    "code": "12158",
    "lines": [
      "京哈线",
      "东星线"
    ]
  },
  "唐山北": {
    "name_zh": "唐山北",
    "name_en": "Tangshan N.",
    "type": "junction",
    "lat": 39.816639,
    "lon": 118.111845,
    "country": "cr",
    "code": "11159",
    "lines": [
      "京哈线",
      "张唐线"
    ]
  },
  "龙家营": {
    "name_zh": "龙家营",
    "name_en": "Langjiaying",
    "type": "junction",
    "lat": 39.962669,
    "lon": 119.675464,
    "country": "cr",
    "code": "10328",
    "lines": [
      "京哈线",
      "津秦高速线"
    ]
  },
  "封浜": {
    "name_zh": "封浜",
    "name_en": "Fengbang",
    "type": "junction",
    "lat": 31.25843,
    "lon": 121.284308,
    "country": "cr",
    "code": "32045",
    "lines": [
      "沪昆线",
      "黄封线",
      "虹封线"
    ]
  },
  "七宝": {
    "name_zh": "七宝",
    "name_en": "Qibao",
    "type": "junction",
    "lat": 31.160707,
    "lon": 121.323608,
    "country": "cr",
    "code": "32075",
    "lines": [
      "沪昆线",
      "虹七线"
    ]
  },
  "李家塘": {
    "name_zh": "李家塘",
    "name_en": "Lijiatang",
    "type": "junction",
    "lat": 31.113415,
    "lon": 121.356107,
    "country": "cr",
    "code": "32076",
    "lines": [
      "沪昆线",
      "李莘联络线"
    ]
  },
  "春申": {
    "name_zh": "春申",
    "name_en": "Chunshen",
    "type": "junction",
    "lat": 31.081086,
    "lon": 121.349777,
    "country": "cr",
    "code": "32081",
    "lines": [
      "沪昆线",
      "沪春线"
    ]
  },
  "笕桥": {
    "name_zh": "笕桥",
    "name_en": "Jianqiao",
    "type": "junction",
    "lat": 30.331066,
    "lon": 120.212347,
    "country": "cr",
    "code": "32198",
    "lines": [
      "沪昆线",
      "笕杭线",
      "笕桥线"
    ]
  },
  "梁家渡": {
    "name_zh": "梁家渡",
    "name_en": "Liangjiadu",
    "type": "junction",
    "lat": 28.404634,
    "lon": 115.997943,
    "country": "cr",
    "code": "32879",
    "lines": [
      "沪昆线",
      "向东D线"
    ]
  },
  "东门": {
    "name_zh": "东门",
    "name_en": "Dongmen",
    "type": "junction",
    "lat": 45.741982,
    "lon": 126.716202,
    "country": "cr",
    "code": "62665",
    "lines": [
      "拉滨线",
      "东新联络线"
    ]
  },
  "榆树屯": {
    "name_zh": "榆树屯",
    "name_en": "Yushutun",
    "type": "junction",
    "lat": 47.153445,
    "lon": 123.887819,
    "country": "cr",
    "code": "56663",
    "lines": [
      "平齐线",
      "榆红线"
    ]
  },
  "昌平": {
    "name_zh": "昌平",
    "name_en": "Changping",
    "type": "junction",
    "lat": 40.188625,
    "lon": 116.187343,
    "country": "cr",
    "code": "12173",
    "lines": [
      "京通线",
      "京包客运专线京呼段"
    ]
  },
  "雁栖湖": {
    "name_zh": "雁栖湖",
    "name_en": "Yanqihu",
    "type": "junction",
    "lat": 40.373016,
    "lon": 116.654039,
    "country": "cr",
    "code": "11627",
    "lines": [
      "京通线",
      "怀范联络线"
    ]
  },
  "隆化": {
    "name_zh": "隆化",
    "name_en": "Longhua",
    "type": "junction",
    "lat": 41.326358,
    "lon": 117.744138,
    "country": "cr",
    "code": "11726",
    "lines": [
      "京通线",
      "承隆线"
    ]
  },
  "青龙桥南所": {
    "name_zh": "青龙桥南所",
    "name_en": "",
    "type": "junction",
    "lat": 40.34551,
    "lon": 116.016287,
    "country": "cr",
    "code": "d1cb33d9",
    "lines": [
      "京包线北京段",
      "京包线青龙桥上行线"
    ]
  },
  "青龙桥西": {
    "name_zh": "青龙桥西",
    "name_en": "",
    "type": "junction",
    "lat": 40.343699,
    "lon": 116.010169,
    "country": "cr",
    "code": "8e3d1b7c",
    "lines": [
      "京包线北京段"
    ]
  },
  "青龙桥北所": {
    "name_zh": "青龙桥北所",
    "name_en": "",
    "type": "junction",
    "lat": 40.35101,
    "lon": 116.010063,
    "country": "cr",
    "code": "ecab1a69",
    "lines": [
      "京包线北京段",
      "京包线青龙桥上行线"
    ]
  },
  "青龙桥": {
    "name_zh": "青龙桥",
    "name_en": "Qinglongqiao",
    "type": "junction",
    "lat": 40.34999,
    "lon": 116.019242,
    "country": "cr",
    "code": "12212",
    "lines": [
      "京包线青龙桥上行线"
    ]
  },
  "台阁牧": {
    "name_zh": "台阁牧",
    "name_en": "Taigemu",
    "type": "junction",
    "lat": 40.745403,
    "lon": 111.474239,
    "country": "cr",
    "code": "12596",
    "lines": [
      "京包线呼和浩特段",
      "京包客运专线呼包段"
    ]
  },
  "包头西": {
    "name_zh": "包头西",
    "name_en": "Baotou W.",
    "type": "junction",
    "lat": 40.609339,
    "lon": 109.745534,
    "country": "cr",
    "code": "14507",
    "lines": [
      "包兰线",
      "包包联络线"
    ]
  },
  "何刘": {
    "name_zh": "何刘",
    "name_en": "Heliu",
    "type": "junction",
    "lat": 30.531025,
    "lon": 114.490196,
    "country": "cr",
    "code": "21959",
    "lines": [
      "武九线",
      "武昌南环线"
    ]
  },
  "柳州": {
    "name_zh": "柳州",
    "name_en": "Liuzhou",
    "type": "junction",
    "lat": 24.310558,
    "lon": 109.383696,
    "country": "cr",
    "code": "36257",
    "lines": [
      "湘桂线",
      "黔桂线"
    ]
  },
  "黎塘": {
    "name_zh": "黎塘",
    "name_en": "Litang",
    "type": "junction",
    "lat": 23.197721,
    "lon": 109.128793,
    "country": "cr",
    "code": "36374",
    "lines": [
      "湘桂线",
      "黎湛线"
    ]
  },
  "燕岗": {
    "name_zh": "燕岗",
    "name_en": "Yangang",
    "type": "junction",
    "lat": 29.555199,
    "lon": 103.521754,
    "country": "cr",
    "code": "47744",
    "lines": [
      "峨广线",
      "成昆线"
    ]
  },
  "广通北": {
    "name_zh": "广通北",
    "name_en": "Guangtong N.",
    "type": "junction",
    "lat": 25.167389,
    "lon": 101.76366,
    "country": "cr",
    "code": "48101",
    "lines": [
      "峨广线",
      "广昆线"
    ]
  },
  "太原南": {
    "name_zh": "太原南",
    "name_en": "Taiyuan S.",
    "type": "junction",
    "lat": 37.79058,
    "lon": 112.603721,
    "country": "cr",
    "code": "26468",
    "lines": [
      "南同蒲线",
      "太中线",
      "石太客运专线"
    ]
  },
  "定边": {
    "name_zh": "定边",
    "name_en": "Dingbian",
    "type": "junction",
    "lat": 37.561211,
    "lon": 107.571514,
    "country": "cr",
    "code": "65054",
    "lines": [
      "太中线",
      "定银线"
    ]
  },
  "富裕": {
    "name_zh": "富裕",
    "name_en": "Fuyu",
    "type": "junction",
    "lat": 47.794401,
    "lon": 124.453512,
    "country": "cr",
    "code": "59567",
    "lines": [
      "齐北线",
      "富西线"
    ]
  },
  "红旗营": {
    "name_zh": "红旗营",
    "name_en": "Hongqiying",
    "type": "junction",
    "lat": 47.114366,
    "lon": 123.906848,
    "country": "cr",
    "code": "57485",
    "lines": [
      "滨洲线",
      "榆红线"
    ]
  },
  "牙克石": {
    "name_zh": "牙克石",
    "name_en": "Yakeshi",
    "type": "junction",
    "lat": 49.277502,
    "lon": 120.731077,
    "country": "cr",
    "code": "57749",
    "lines": [
      "滨洲线",
      "牙林线"
    ]
  },
  "加格达奇": {
    "name_zh": "加格达奇",
    "name_en": "Jagdaqi",
    "type": "junction",
    "lat": 50.418669,
    "lon": 124.119179,
    "country": "cr",
    "code": "58910",
    "lines": [
      "富西线",
      "伊加线"
    ]
  },
  "伊图里河": {
    "name_zh": "伊图里河",
    "name_en": "Yitulihe",
    "type": "junction",
    "lat": 50.627233,
    "lon": 121.545366,
    "country": "cr",
    "code": "58298",
    "lines": [
      "伊加线",
      "牙林线"
    ]
  },
  "新香坊": {
    "name_zh": "新香坊",
    "name_en": "Xin Xiangfang",
    "type": "junction",
    "lat": 45.709644,
    "lon": 126.761697,
    "country": "cr",
    "code": "61931",
    "lines": [
      "滨绥线哈牡段",
      "东新联络线"
    ]
  },
  "梅河口": {
    "name_zh": "梅河口",
    "name_en": "Meihekou",
    "type": "junction",
    "lat": 42.533609,
    "lon": 125.679816,
    "country": "cr",
    "code": "64301",
    "lines": [
      "四梅线",
      "梅集线"
    ]
  },
  "石景山南": {
    "name_zh": "石景山南",
    "name_en": "Shijingshan S.",
    "type": "junction",
    "lat": 39.873525,
    "lon": 116.208327,
    "country": "cr",
    "code": "13385",
    "lines": [
      "京原线",
      "丰沙线"
    ]
  },
  "怀柔": {
    "name_zh": "怀柔",
    "name_en": "Huairou",
    "type": "junction",
    "lat": 40.316018,
    "lon": 116.642939,
    "country": "cr",
    "code": "11378",
    "lines": [
      "京承线",
      "怀范联络线"
    ]
  },
  "赵家店所": {
    "name_zh": "赵家店所",
    "name_en": "",
    "type": "junction",
    "lat": 40.630505,
    "lon": 117.768664,
    "country": "cr",
    "code": "697325ec",
    "lines": [
      "京承线",
      "李家营联络线"
    ]
  },
  "李家营": {
    "name_zh": "李家营",
    "name_en": "Lijiaying",
    "type": "junction",
    "lat": 40.582992,
    "lon": 117.748895,
    "country": "cr",
    "code": "10973",
    "lines": [
      "张唐线",
      "李家营联络线"
    ]
  },
  "西陌堂所": {
    "name_zh": "西陌堂所",
    "name_en": "",
    "type": "junction",
    "lat": 37.413618,
    "lon": 121.339061,
    "country": "cr",
    "code": "18663",
    "lines": [
      "青烟直通线",
      "青荣城际线青烟段"
    ]
  },
  "淮南": {
    "name_zh": "淮南",
    "name_en": "Huainan",
    "type": "junction",
    "lat": 32.633232,
    "lon": 117.014504,
    "country": "cr",
    "code": "19682",
    "lines": [
      "淮南线",
      "阜淮线"
    ]
  },
  "莘庄": {
    "name_zh": "莘庄",
    "name_en": "Xinzhuang",
    "type": "junction",
    "lat": 31.110862,
    "lon": 121.37985,
    "country": "cr",
    "code": "32078",
    "lines": [
      "沪春线",
      "李莘联络线"
    ]
  },
  "春申南所": {
    "name_zh": "春申南所",
    "name_en": "",
    "type": "junction",
    "lat": 31.080518,
    "lon": 121.350909,
    "country": "cr",
    "code": "912699c8",
    "lines": [
      "沪春线",
      "沪苏湖高速线"
    ]
  },
  "春申所": {
    "name_zh": "春申所",
    "name_en": "",
    "type": "junction",
    "lat": 31.081196,
    "lon": 121.352311,
    "country": "cr",
    "code": "cc45f8ec",
    "lines": [
      "上海南联络线（沪春三四线）",
      "沪昆高速线沪赣段"
    ]
  },
  "笕桥所": {
    "name_zh": "笕桥所",
    "name_en": "",
    "type": "junction",
    "lat": 30.354931,
    "lon": 120.244343,
    "country": "cr",
    "code": "a535f86a",
    "lines": [
      "笕桥线",
      "沪昆高速线沪赣段"
    ]
  },
  "前场": {
    "name_zh": "前场",
    "name_en": "Qianchang",
    "type": "junction",
    "lat": 24.572739,
    "lon": 117.973087,
    "country": "cr",
    "code": "34565",
    "lines": [
      "鹰厦线",
      "杭深线甬深段"
    ]
  },
  "温州北": {
    "name_zh": "温州北",
    "name_en": "Wenzhou N.",
    "type": "junction",
    "lat": 28.071188,
    "lon": 120.692755,
    "country": "cr",
    "code": "33988",
    "lines": [
      "永嘉联络线",
      "杭深线甬深段"
    ]
  },
  "西宁": {
    "name_zh": "西宁",
    "name_en": "Xining",
    "type": "junction",
    "lat": 36.620513,
    "lon": 101.811449,
    "country": "cr",
    "code": "43502",
    "lines": [
      "兰青线",
      "青藏线"
    ]
  },
  "敦化": {
    "name_zh": "敦化",
    "name_en": "Dunhua",
    "type": "junction",
    "lat": 43.37823,
    "lon": 128.235667,
    "country": "cr",
    "code": "63227",
    "lines": [
      "敦白联络线",
      "长珲城际线"
    ]
  },
  "敦化南": {
    "name_zh": "敦化南",
    "name_en": "Dunhua S.",
    "type": "junction",
    "lat": 43.316878,
    "lon": 128.332657,
    "country": "cr",
    "code": "09e52b7e",
    "lines": [
      "敦白联络线",
      "沈佳高速线敦白段"
    ]
  },
  "姚家窝堡所": {
    "name_zh": "姚家窝堡所",
    "name_en": "",
    "type": "junction",
    "lat": 42.024395,
    "lon": 122.660732,
    "country": "cr",
    "code": "67034",
    "lines": [
      "姚田联络线",
      "京哈高速线京沈段"
    ]
  },
  "田家窝堡所": {
    "name_zh": "田家窝堡所",
    "name_en": "",
    "type": "junction",
    "lat": 42.05201,
    "lon": 122.683919,
    "country": "cr",
    "code": "53293",
    "lines": [
      "姚田联络线",
      "新通客运专线"
    ]
  },
  "崔家营子所": {
    "name_zh": "崔家营子所",
    "name_en": "",
    "type": "junction",
    "lat": 43.934415,
    "lon": 125.24999,
    "country": "cr",
    "code": "53480",
    "lines": [
      "哈长联络线",
      "京哈高速线沈哈段"
    ]
  },
  "杨家粉坊所": {
    "name_zh": "杨家粉坊所",
    "name_en": "",
    "type": "junction",
    "lat": 43.916288,
    "lon": 125.265797,
    "country": "cr",
    "code": "54119",
    "lines": [
      "哈长联络线",
      "长珲城际线"
    ]
  },
  "走马岭所": {
    "name_zh": "走马岭所",
    "name_en": "",
    "type": "junction",
    "lat": 30.634842,
    "lon": 114.013787,
    "country": "cr",
    "code": "0fe38421",
    "lines": [
      "高桥联络线",
      "武汉枢纽直通线"
    ]
  },
  "高桥所": {
    "name_zh": "高桥所",
    "name_en": "",
    "type": "junction",
    "lat": 30.617726,
    "lon": 114.055252,
    "country": "cr",
    "code": "06e54b21",
    "lines": [
      "高桥联络线",
      "宁蓉线汉渝段"
    ]
  },
  "大明湖": {
    "name_zh": "大明湖",
    "name_en": "Daminghu",
    "type": "junction",
    "lat": 36.681364,
    "lon": 117.022926,
    "country": "cr",
    "code": "17699",
    "lines": [
      "京胶联络线",
      "胶济客运专线"
    ]
  },
  "崔马庄所": {
    "name_zh": "崔马庄所",
    "name_en": "",
    "type": "junction",
    "lat": 36.550749,
    "lon": 116.886917,
    "country": "cr",
    "code": "66501",
    "lines": [
      "济沪联络线",
      "京沪高速线"
    ]
  },
  "莱西东所": {
    "name_zh": "莱西东所",
    "name_en": "",
    "type": "junction",
    "lat": 36.842733,
    "lon": 120.543955,
    "country": "cr",
    "code": "34f3f0d8",
    "lines": [
      "莱西联络线",
      "潍荣高速线"
    ]
  },
  "南仓所": {
    "name_zh": "南仓所",
    "name_en": "",
    "type": "junction",
    "lat": 39.211126,
    "lon": 117.168402,
    "country": "cr",
    "code": "10008",
    "lines": [
      "南仓城际高速联络线",
      "京津城际线"
    ]
  },
  "德州东": {
    "name_zh": "德州东",
    "name_en": "Dezhou E.",
    "type": "junction",
    "lat": 37.408745,
    "lon": 116.456489,
    "country": "cr",
    "code": "66809",
    "lines": [
      "德州东联络线",
      "京沪高速线"
    ]
  },
  "陵县所": {
    "name_zh": "陵县所",
    "name_en": "",
    "type": "junction",
    "lat": 37.357157,
    "lon": 116.472546,
    "country": "cr",
    "code": "66876",
    "lines": [
      "德州东联络线",
      "石济客运专线"
    ]
  },
  "包头": {
    "name_zh": "包头",
    "name_en": "Baotou",
    "type": "junction",
    "lat": 40.604055,
    "lon": 109.831213,
    "country": "cr",
    "code": "14489",
    "lines": [
      "包包联络线",
      "京包客运专线呼包段"
    ]
  },
  "新墩": {
    "name_zh": "新墩",
    "name_en": "Xindun",
    "type": "junction",
    "lat": 30.61956,
    "lon": 114.191425,
    "country": "cr",
    "code": "29318",
    "lines": [
      "汉西联络线",
      "宁蓉线汉渝段"
    ]
  },
  "安亭北所": {
    "name_zh": "安亭北所",
    "name_en": "",
    "type": "junction",
    "lat": 31.298858,
    "lon": 121.232398,
    "country": "cr",
    "code": "acf6abbb",
    "lines": [
      "虹安联络线",
      "沪宁城际线"
    ]
  },
  "黄渡所": {
    "name_zh": "黄渡所",
    "name_en": "",
    "type": "junction",
    "lat": 31.300029,
    "lon": 121.231279,
    "country": "cr",
    "code": "66521",
    "lines": [
      "黄渡联络线",
      "京沪高速线"
    ]
  },
  "南翔北所": {
    "name_zh": "南翔北所",
    "name_en": "",
    "type": "junction",
    "lat": 31.291749,
    "lon": 121.26499,
    "country": "cr",
    "code": "66523",
    "lines": [
      "黄渡联络线",
      "沪宁城际线"
    ]
  },
  "新沂": {
    "name_zh": "新沂",
    "name_en": "Xinyi",
    "type": "junction",
    "lat": 34.382275,
    "lon": 118.34303,
    "country": "cr",
    "code": "38561",
    "lines": [
      "陇海线",
      "新长线"
    ]
  },
  "上饶": {
    "name_zh": "上饶",
    "name_en": "Shangrao",
    "type": "junction",
    "lat": 28.493506,
    "lon": 118.001263,
    "country": "cr",
    "code": "32687",
    "lines": [
      "上饶东南联络线",
      "合福高速线饶福段"
    ]
  },
  "京福所": {
    "name_zh": "京福所",
    "name_en": "",
    "type": "junction",
    "lat": 28.494566,
    "lon": 118.043677,
    "country": "cr",
    "code": "ad645c6d",
    "lines": [
      "上饶东南联络线",
      "沪昆高速线沪赣段"
    ]
  },
  "双龙南": {
    "name_zh": "双龙南",
    "name_en": "Shuanglong S.",
    "type": "junction",
    "lat": 26.485276,
    "lon": 106.784883,
    "country": "cr",
    "code": "429e6741",
    "lines": [
      "秦双联络线",
      "贵阳环线"
    ]
  },
  "横店东": {
    "name_zh": "横店东",
    "name_en": "Hengdian E.",
    "type": "junction",
    "lat": 30.795155,
    "lon": 114.331511,
    "country": "cr",
    "code": "65797",
    "lines": [
      "京广高速线武广段",
      "宁蓉线宁汉段"
    ]
  },
  "仙林": {
    "name_zh": "仙林",
    "name_en": "Xianlin",
    "type": "junction",
    "lat": 32.125148,
    "lon": 118.907694,
    "country": "cr",
    "code": "66310",
    "lines": [
      "宁蓉线宁汉段",
      "沪宁城际线"
    ]
  },
  "塘雅所": {
    "name_zh": "塘雅所",
    "name_en": "",
    "type": "junction",
    "lat": 29.158618,
    "lon": 119.787356,
    "country": "cr",
    "code": "33001",
    "lines": [
      "沪昆高速线沪赣段",
      "金温线"
    ]
  },
  "胶州北": {
    "name_zh": "胶州北",
    "name_en": "Jiaozhou N.",
    "type": "junction",
    "lat": 36.396203,
    "lon": 120.049952,
    "country": "cr",
    "code": "17963",
    "lines": [
      "胶济客运专线",
      "济青高速线"
    ]
  },
  "徐州东所": {
    "name_zh": "徐州东所",
    "name_en": "",
    "type": "junction",
    "lat": 34.313519,
    "lon": 117.289908,
    "country": "cr",
    "code": "38934",
    "lines": [
      "徐兰高速线郑徐段",
      "徐州联络线"
    ]
  },
  "丹徒": {
    "name_zh": "丹徒",
    "name_en": "Dantu",
    "type": "junction",
    "lat": 32.117424,
    "lon": 119.515677,
    "country": "cr",
    "code": "66316",
    "lines": [
      "沪宁城际线",
      "连镇高速线"
    ]
  },
  "荣成": {
    "name_zh": "荣成",
    "name_en": "Rongcheng",
    "type": "junction",
    "lat": 37.143949,
    "lon": 122.403781,
    "country": "cr",
    "code": "18675",
    "lines": [
      "青荣城际线威荣段",
      "潍荣高速线"
    ]
  },
  "白云北": {
    "name_zh": "白云北",
    "name_en": "Baiyun N.",
    "type": "junction",
    "lat": 26.706559,
    "lon": 106.658899,
    "country": "cr",
    "code": "4d19753d",
    "lines": [
      "成贵客运专线贵阳段",
      "贵阳环线"
    ]
  },
  "尖坡所": {
    "name_zh": "尖坡所",
    "name_en": "",
    "type": "junction",
    "lat": 26.686657,
    "lon": 106.69012,
    "country": "cr",
    "code": "fc185e6b",
    "lines": [
      "成贵客运专线贵阳段",
      "成贵贵阳北联络线"
    ]
  },
  "巢湖东": {
    "name_zh": "巢湖东",
    "name_en": "Chaohu E.",
    "type": "junction",
    "lat": 31.620012,
    "lon": 117.919911,
    "country": "cr",
    "code": "34114",
    "lines": [
      "合福高速线合黄段",
      "巢湖东南联络线"
    ]
  },
  "南阳寨": {
    "name_zh": "南阳寨",
    "name_en": "Nanyangzhai",
    "type": "junction",
    "lat": 34.815844,
    "lon": 113.61093,
    "country": "cr",
    "code": "21749",
    "lines": [
      "京广线石郑段",
      "郑太客运专线"
    ]
  },
  "八达岭西所": {
    "name_zh": "八达岭西所",
    "name_en": "",
    "type": "junction",
    "lat": 40.382513,
    "lon": 115.960675,
    "country": "cr",
    "code": "a7e2bfc6",
    "lines": [
      "京包客运专线京呼段",
      "延庆线"
    ]
  },
  "济南东": {
    "name_zh": "济南东",
    "name_en": "Jinan E.",
    "type": "junction",
    "lat": 36.747458,
    "lon": 117.153829,
    "country": "cr",
    "code": "17601",
    "lines": [
      "石济客运专线",
      "济青高速线"
    ]
  },
  "董集": {
    "name_zh": "董集",
    "name_en": "Dongji",
    "type": "junction",
    "lat": 34.431605,
    "lon": 119.230811,
    "country": "cr",
    "code": "38487",
    "lines": [
      "青盐线",
      "连镇高速线"
    ]
  },
  "新沟北所": {
    "name_zh": "新沟北所",
    "name_en": "",
    "type": "junction",
    "lat": 30.714033,
    "lon": 113.929175,
    "country": "cr",
    "code": "1fc8fda8",
    "lines": [
      "沪渝蓉高速线",
      "新沟北联络线"
    ]
  },
  "革新所": {
    "name_zh": "革新所",
    "name_en": "",
    "type": "junction",
    "lat": 30.693377,
    "lon": 113.967255,
    "country": "cr",
    "code": "3f957c06",
    "lines": [
      "武汉枢纽直通线",
      "新沟北联络线"
    ]
  },
  "胡庄所": {
    "name_zh": "胡庄所",
    "name_en": "",
    "type": "junction",
    "lat": 31.589392,
    "lon": 117.948045,
    "country": "cr",
    "code": "8fdcda66",
    "lines": [
      "合杭高速线",
      "巢湖东南联络线"
    ]
  },
  "横山所": {
    "name_zh": "横山所",
    "name_en": "",
    "type": "junction",
    "lat": 32.148336,
    "lon": 119.519736,
    "country": "cr",
    "code": "5120128c",
    "lines": [
      "连镇高速线",
      "镇江联络线"
    ]
  },
  "杭甬杭州南所": {
    "name_zh": "杭甬杭州南所",
    "name_en": "",
    "type": "junction",
    "lat": 30.140235,
    "lon": 120.320491,
    "country": "cr",
    "code": "4041effe",
    "lines": [
      "杭深线杭甬段",
      "杭甬联络线"
    ]
  },
  "一四一所": {
    "name_zh": "一四一所",
    "name_en": "",
    "type": "junction",
    "lat": 29.680139,
    "lon": 106.441399,
    "country": "cr",
    "code": "46571",
    "lines": [
      "渭井线",
      "蔡歌联络线"
    ]
  },
  "灞桥": {
    "name_zh": "灞桥",
    "name_en": "Baqiao",
    "type": "junction",
    "lat": 34.302124,
    "lon": 109.05496,
    "country": "cr",
    "code": "39422",
    "lines": [
      "陇海线",
      "田灞联络线"
    ]
  },
  "阳平关": {
    "name_zh": "阳平关",
    "name_en": "Yangpingguan",
    "type": "junction",
    "lat": 32.96855,
    "lon": 106.03358,
    "country": "cr",
    "code": "45389",
    "lines": [
      "宝成线",
      "阳安线"
    ]
  },
  "歌乐山": {
    "name_zh": "歌乐山",
    "name_en": "Geleshan",
    "type": "junction",
    "lat": 29.626906,
    "lon": 106.433423,
    "country": "cr",
    "code": "46569",
    "lines": [
      "蔡歌联络线",
      "井西线"
    ]
  },
  "西安北": {
    "name_zh": "西安北",
    "name_en": "Xi'an N.",
    "type": "junction",
    "lat": 34.376281,
    "lon": 108.934406,
    "country": "cr",
    "code": "39032",
    "lines": [
      "徐兰高速线郑西段",
      "西成客运专线陕西段"
    ]
  },
  "磨心坡": {
    "name_zh": "磨心坡",
    "name_en": "Moxinpo",
    "type": "junction",
    "lat": 29.857599,
    "lon": 106.468817,
    "country": "cr",
    "code": "30053",
    "lines": [
      "襄渝线",
      "襄遂线"
    ]
  },
  "月山": {
    "name_zh": "月山",
    "name_en": "Yueshan",
    "type": "junction",
    "lat": 35.210022,
    "lon": 113.048827,
    "country": "cr",
    "code": "28442",
    "lines": [
      "焦柳线",
      "太焦线"
    ]
  },
  "修文": {
    "name_zh": "修文",
    "name_en": "Xiuwen",
    "type": "junction",
    "lat": 37.60667,
    "lon": 112.714,
    "country": "cr",
    "code": "27989",
    "lines": [
      "太焦线",
      "南同蒲线"
    ]
  },
  "安康": {
    "name_zh": "安康",
    "name_en": "Ankang",
    "type": "junction",
    "lat": 32.714499,
    "lon": 109.01132,
    "country": "cr",
    "code": "29843",
    "lines": [
      "襄渝线",
      "西康线"
    ]
  },
  "田王": {
    "name_zh": "田王",
    "name_en": "Tianwang",
    "type": "junction",
    "lat": 34.298344,
    "lon": 109.103497,
    "country": "cr",
    "code": "40853",
    "lines": [
      "西康线",
      "田灞联络线"
    ]
  },
  "黄桷所": {
    "name_zh": "黄桷所",
    "name_en": "",
    "type": "junction",
    "lat": 29.829388,
    "lon": 106.45635,
    "country": "cr",
    "code": "30052",
    "lines": [
      "渭井线",
      "襄遂线"
    ]
  }
}