{
  "railway": [
    {
      "name": "北京",
      "lat": 39.90251683186538,
      "lon": 116.41920331631096
    },
    {
      "name": "北京南",
      "lat": 39.863071601995294,
      "lon": 116.3728383919703
    },
    {
      "name": "北京西",
      "lat": 39.89257229374262,
      "lon": 116.31717265290587
    },
    {
      "name": "北京北",
      "lat": 39.94389911081975,
      "lon": 116.3468211352778
    },
    {
      "name": "北京朝阳",
      "lat": 39.943667567335694,
      "lon": 116.503225622054
    },
    {
      "name": "北京丰台",
      "lat": 39.849629017642144,
      "lon": 116.2953934657941
    },
    {
      "name": "清河",
      "lat": 40.04072273944787,
      "lon": 116.3077141352536
    },
    {
      "name": "八达岭长城",
      "lat": 40.35802940915442,
      "lon": 116.00490988907565
    },
    {
      "name": "八达岭",
      "lat": 40.35887618890508,
      "lon": 115.99533382640618
    },
    {
      "name": "延庆",
      "lat": 40.43521540522877,
      "lon": 115.97811916100417
    },
    {
      "name": "康庄",
      "lat": 40.3788214819236,
      "lon": 115.89227236208376
    },
    {
      "name": "黄土店",
      "lat": 40.06824098566767,
      "lon": 116.35724261940351
    },
    {
      "name": "北京大兴",
      "lat": 39.719036682633124,
      "lon": 116.32274267353344
    },
    {
      "name": "大兴机场",
      "lat": 39.51090008869052,
      "lon": 116.40950411410157
    },
    {
      "name": "昌平北",
      "lat": 40.23001239069912,
      "lon": 116.2270952645293
    },
    {
      "name": "怀柔北",
      "lat": 40.40787563005983,
      "lon": 116.68642511256509
    },
    {
      "name": "古北口",
      "lat": 40.69051285382549,
      "lon": 117.1353398528768
    },
    {
      "name": "顺义",
      "lat": 40.124765502132014,
      "lon": 116.6395981916796
    },
    {
      "name": "燕山",
      "lat": 39.74798310747519,
      "lon": 115.9523484083735
    },
    {
      "name": "天津",
      "lat": 39.13679161356966,
      "lon": 117.20371994928244
    },
    {
      "name": "天津西",
      "lat": 39.15694549978822,
      "lon": 117.15722806478753
    },
    {
      "name": "天津北",
      "lat": 39.165953507083266,
      "lon": 117.20321664042069
    },
    {
      "name": "蓟州",
      "lat": 39.99368602097273,
      "lon": 117.36270598207112
    },
    {
      "name": "蓟州北",
      "lat": 40.025453602663944,
      "lon": 117.39162775700188
    },
    {
      "name": "石家庄",
      "lat": 38.00943423743659,
      "lon": 114.47848725839017
    },
    {
      "name": "唐山",
      "lat": 39.62286390003387,
      "lon": 118.11515202569242
    },
    {
      "name": "承德",
      "lat": 40.96309578753556,
      "lon": 117.9482607486502
    },
    {
      "name": "承德南",
      "lat": 40.883667871252605,
      "lon": 117.95870309971427
    },
    {
      "name": "霸州西",
      "lat": 39.092988670791954,
      "lon": 116.34445713104759
    },
    {
      "name": "霸州北",
      "lat": 39.18555757505842,
      "lon": 116.32109740790445
    },
    {
      "name": "雄安",
      "lat": 39.05562390768637,
      "lon": 116.154070856847
    },
    {
      "name": "白洋淀",
      "lat": 39.06863307153378,
      "lon": 115.86890126638767
    },
    {
      "name": "秦皇岛",
      "lat": 39.964616088759904,
      "lon": 119.58622641890963
    },
    {
      "name": "山海关",
      "lat": 39.99940317808515,
      "lon": 119.76155216100267
    },
    {
      "name": "北戴河",
      "lat": 39.84985764546672,
      "lon": 119.41362020339368
    },
    {
      "name": "张家口",
      "lat": 40.75070389592844,
      "lon": 114.87673298573546
    },
    {
      "name": "宣化",
      "lat": 40.596602244458964,
      "lon": 115.05037749453838
    },
    {
      "name": "燕郊",
      "lat": 39.94057034116905,
      "lon": 116.81967268811295
    },
    {
      "name": "呼和浩特",
      "lat": 40.82949919713881,
      "lon": 111.65830577468823
    },
    {
      "name": "呼和浩特东",
      "lat": 40.84834347297365,
      "lon": 111.75933389941765
    },
    {
      "name": "乌兰察布",
      "lat": 40.96334500553499,
      "lon": 113.15225419626604
    },
    {
      "name": "通辽",
      "lat": 43.60294065466664,
      "lon": 122.26642544920303
    },
    {
      "name": "海拉尔",
      "lat": 49.22843049893972,
      "lon": 119.73666301900384
    },
    {
      "name": "哈尔滨",
      "lat": 45.75814850773292,
      "lon": 126.62486048101105
    },
    {
      "name": "哈尔滨东",
      "lat": 45.784391128838905,
      "lon": 126.70713377209573
    },
    {
      "name": "哈尔滨西",
      "lat": 45.70538738155455,
      "lon": 126.571041505842
    },
    {
      "name": "呼兰",
      "lat": 45.99626325325346,
      "lon": 126.64056907519071
    },
    {
      "name": "牡丹江",
      "lat": 44.589049141216684,
      "lon": 129.6062800166375
    },
    {
      "name": "横道河子东",
      "lat": 44.78892899918404,
      "lon": 129.09908023977232
    },
    {
      "name": "绥芬河",
      "lat": 44.404199395636084,
      "lon": 131.12917470835512
    },
    {
      "name": "齐齐哈尔",
      "lat": 47.33807101394388,
      "lon": 123.98917225353102
    },
    {
      "name": "漠河",
      "lat": 52.98670899087415,
      "lon": 122.50051393533658
    },
    {
      "name": "吉林",
      "lat": 43.85702217767775,
      "lon": 126.57245129905675
    },
    {
      "name": "长白山",
      "lat": 42.45958927708683,
      "lon": 128.12237464890967
    },
    {
      "name": "沈阳北",
      "lat": 41.816959834841256,
      "lon": 123.42981485329194
    },
    {
      "name": "大连",
      "lat": 38.9213887498692,
      "lon": 121.62807910859019
    },
    {
      "name": "大连北",
      "lat": 39.01597783973137,
      "lon": 121.60137704087084
    },
    {
      "name": "济南",
      "lat": 36.670730867486306,
      "lon": 116.98507190806818
    },
    {
      "name": "济南西",
      "lat": 36.66920577671152,
      "lon": 116.88790630327794
    },
    {
      "name": "淄博",
      "lat": 36.78835590966978,
      "lon": 118.05155765341256
    },
    {
      "name": "南博山",
      "lat": 36.3575961412847,
      "lon": 117.95506582123681
    },
    {
      "name": "泰安",
      "lat": 36.17208334751856,
      "lon": 117.02934831410124
    },
    {
      "name": "泰山",
      "lat": 36.18685678614764,
      "lon": 117.10362293733482
    },
    {
      "name": "青岛北",
      "lat": 36.168693614235906,
      "lon": 120.36952367609534
    },
    {
      "name": "上海",
      "lat": 31.251389985491077,
      "lon": 121.44852077619514
    },
    {
      "name": "上海南",
      "lat": 31.15386306745182,
      "lon": 121.42698250488974
    },
    {
      "name": "上海虹桥",
      "lat": 31.196703940236098,
      "lon": 121.31480093175676
    },
    {
      "name": "上海西",
      "lat": 31.264134900245033,
      "lon": 121.39815579198297
    },
    {
      "name": "上海松江",
      "lat": 30.985033751064773,
      "lon": 121.2253098167985
    },
    {
      "name": "[松江北]",
      "lat": 31.001680448217186,
      "lon": 121.22340195007988
    },
    {
      "name": "南京",
      "lat": 32.0901197129243,
      "lon": 118.79304118270053
    },
    {
      "name": "南京南",
      "lat": 31.97006294320915,
      "lon": 118.79387667845742
    },
    {
      "name": "苏州",
      "lat": 31.331841727439397,
      "lon": 120.60668120993446
    },
    {
      "name": "苏州北",
      "lat": 31.423240834124723,
      "lon": 120.63928569284181
    },
    {
      "name": "苏州园区",
      "lat": 31.34368545870389,
      "lon": 120.70623304061772
    },
    {
      "name": "苏州新区",
      "lat": 31.374043102258064,
      "lon": 120.52010900774503
    },
    {
      "name": "苏州南",
      "lat": 31.065315295146863,
      "lon": 120.795514879163
    },
    {
      "name": "太仓",
      "lat": 31.512011755694488,
      "lon": 121.19214461488349
    },
    {
      "name": "常熟",
      "lat": 31.69953406620185,
      "lon": 120.77599650005705
    },
    {
      "name": "张家港",
      "lat": 31.819379277084465,
      "lon": 120.66974598457865
    },
    {
      "name": "常州",
      "lat": 31.787333965685733,
      "lon": 119.96919936126324
    },
    {
      "name": "武进",
      "lat": 31.66121261206861,
      "lon": 119.94201484469006
    },
    {
      "name": "镇江",
      "lat": 32.19958569262872,
      "lon": 119.42736665939108
    },
    {
      "name": "徐州东",
      "lat": 34.268628921863076,
      "lon": 117.29772989306043
    },
    {
      "name": "宿迁",
      "lat": 33.87590990443698,
      "lon": 118.27633556460356
    },
    {
      "name": "淮安东",
      "lat": 33.57012409244364,
      "lon": 119.18274662655037
    },
    {
      "name": "连云港",
      "lat": 34.61030284713549,
      "lon": 119.15825145908971
    },
    {
      "name": "盐城",
      "lat": 33.383739151612694,
      "lon": 120.16919028422569
    },
    {
      "name": "海安",
      "lat": 32.549268419869655,
      "lon": 120.50033013841721
    },
    {
      "name": "扬州",
      "lat": 32.39162253788777,
      "lon": 119.34539575680259
    },
    {
      "name": "杭州",
      "lat": 30.246198247605243,
      "lon": 120.17732570765959
    },
    {
      "name": "杭州东",
      "lat": 30.293964120120336,
      "lon": 120.20789203537153
    },
    {
      "name": "杭州南",
      "lat": 30.174534659674652,
      "lon": 120.28871306757257
    },
    {
      "name": "绍兴",
      "lat": 30.016434567091963,
      "lon": 120.57474188126753
    },
    {
      "name": "绍兴北",
      "lat": 30.102818704432888,
      "lon": 120.53299429640205
    },
    {
      "name": "诸暨",
      "lat": 29.730064681822586,
      "lon": 120.18103791581363
    },
    {
      "name": "宁波",
      "lat": 29.86523310111439,
      "lon": 121.53240165975718
    },
    {
      "name": "温州南",
      "lat": 27.96931292761803,
      "lon": 120.58120830680188
    },
    {
      "name": "义乌",
      "lat": 29.380372129125153,
      "lon": 120.03867725437429
    },
    {
      "name": "横店",
      "lat": 29.21757851721257,
      "lon": 120.26017747999752
    },
    {
      "name": "湖州",
      "lat": 30.86427385725074,
      "lon": 120.01942767918646
    },
    {
      "name": "湖州南浔",
      "lat": 30.829533768926208,
      "lon": 120.40269565802518
    },
    {
      "name": "嘉兴",
      "lat": 30.7669688374806,
      "lon": 120.75881725599666
    },
    {
      "name": "嘉兴南",
      "lat": 30.693214824585255,
      "lon": 120.7949372694754
    },
    {
      "name": "海宁",
      "lat": 30.535639352570467,
      "lon": 120.68067132563044
    },
    {
      "name": "衢州",
      "lat": 28.92759893460416,
      "lon": 118.8761674684662
    },
    {
      "name": "合肥南",
      "lat": 31.80095793773525,
      "lon": 117.28475916158543
    },
    {
      "name": "黄山北",
      "lat": 29.818050729180705,
      "lon": 118.26761786578294
    },
    {
      "name": "黟县东",
      "lat": 29.887331752319984,
      "lon": 118.0423665037031
    },
    {
      "name": "芜湖",
      "lat": 31.350148571639867,
      "lon": 118.38738523245242
    },
    {
      "name": "芜湖南",
      "lat": 31.25082910679063,
      "lon": 118.37332715485907
    },
    {
      "name": "池州",
      "lat": 30.622131889389582,
      "lon": 117.51612621159009
    },
    {
      "name": "福州",
      "lat": 26.11716659667765,
      "lon": 119.31541498361173
    },
    {
      "name": "福州南",
      "lat": 25.988278554586817,
      "lon": 119.3856010587736
    },
    {
      "name": "厦门",
      "lat": 24.470208910328775,
      "lon": 118.11122506789245
    },
    {
      "name": "厦门北",
      "lat": 24.638772345089258,
      "lon": 118.06902974031824
    },
    {
      "name": "泉州",
      "lat": 24.976173266848793,
      "lon": 118.56322108992184
    },
    {
      "name": "漳州",
      "lat": 24.460352236342057,
      "lon": 117.71182602010276
    },
    {
      "name": "广州东",
      "lat": 23.1528774908218,
      "lon": 113.31997695931682
    },
    {
      "name": "广州南",
      "lat": 22.991076660275926,
      "lon": 113.26175790182593
    },
    {
      "name": "广州北",
      "lat": 23.37997151888652,
      "lon": 113.19841822764907
    },
    {
      "name": "广州白云",
      "lat": 23.193937516319735,
      "lon": 113.24103591331762
    },
    {
      "name": "广州新塘",
      "lat": 23.136823893616818,
      "lon": 113.60112979289717
    },
    {
      "name": "清城",
      "lat": 23.65600335714527,
      "lon": 113.06102288126371
    },
    {
      "name": "白云机场北",
      "lat": 23.398985584415296,
      "lon": 113.30054110289296
    },
    {
      "name": "深圳北",
      "lat": 22.60995436345897,
      "lon": 114.02328864141793
    },
    {
      "name": "深圳",
      "lat": 22.535524963423967,
      "lon": 114.11266776494178
    },
    {
      "name": "福田",
      "lat": 22.540890099853158,
      "lon": 114.0518913857049
    },
    {
      "name": "东莞",
      "lat": 23.092444795424584,
      "lon": 113.85421182921415
    },
    {
      "name": "西平西",
      "lat": 22.996361609386856,
      "lon": 113.74056955362309
    },
    {
      "name": "惠州南",
      "lat": 22.78756641827537,
      "lon": 114.48740336598532
    },
    {
      "name": "佛山西",
      "lat": 23.08234211705062,
      "lon": 113.02825832308483
    },
    {
      "name": "顺德北",
      "lat": 22.96444665712523,
      "lon": 113.12419295649974
    },
    {
      "name": "张槎",
      "lat": 23.011694846353375,
      "lon": 113.06220001140328
    },
    {
      "name": "香港西九龙",
      "lat": 22.303881872182092,
      "lon": 114.16544282129168
    },
    {
      "name": "南宁",
      "lat": 22.82913862005011,
      "lon": 108.31152281324502
    },
    {
      "name": "南宁东",
      "lat": 22.845280153187257,
      "lon": 108.40960649225757
    },
    {
      "name": "吴圩机场",
      "lat": 22.602692232310677,
      "lon": 108.18295979077008
    },
    {
      "name": "崇左南",
      "lat": 22.379888178280904,
      "lon": 107.36081713677845
    },
    {
      "name": "玉林北",
      "lat": 22.72427579943031,
      "lon": 110.2452279275914
    },
    {
      "name": "玉林",
      "lat": 22.599788443525103,
      "lon": 110.15320912473803
    },
    {
      "name": "金城江",
      "lat": 24.701790013901935,
      "lon": 108.06138245221688
    },
    {
      "name": "河池西",
      "lat": 24.714363714720736,
      "lon": 108.17119732087694
    },
    {
      "name": "南昌",
      "lat": 28.665071424142624,
      "lon": 115.91311276860685
    },
    {
      "name": "新余北",
      "lat": 27.91473679587094,
      "lon": 114.8918784116447
    },
    {
      "name": "长沙",
      "lat": 28.197433875834648,
      "lon": 113.00769470176847
    },
    {
      "name": "长沙南",
      "lat": 28.14943031859128,
      "lon": 113.0581559246885
    },
    {
      "name": "谷山",
      "lat": 28.233342360490035,
      "lon": 112.9022914706018
    },
    {
      "name": "开福寺",
      "lat": 28.227771142766017,
      "lon": 112.97274804584079
    },
    {
      "name": "湘潭",
      "lat": 27.878917674130403,
      "lon": 112.90694185767332
    },
    {
      "name": "湘潭北",
      "lat": 27.96839906898301,
      "lon": 112.93674545313802
    },
    {
      "name": "武汉",
      "lat": 30.60937003310611,
      "lon": 114.41999747106429
    },
    {
      "name": "汉口",
      "lat": 30.62030139680355,
      "lon": 114.25005257363782
    },
    {
      "name": "武昌",
      "lat": 30.532769574806913,
      "lon": 114.31176410134252
    },
    {
      "name": "郑州",
      "lat": 34.74692824568525,
      "lon": 113.65200652594562
    },
    {
      "name": "郑州东",
      "lat": 34.760064689235094,
      "lon": 113.7732254005277
    },
    {
      "name": "开封",
      "lat": 34.77167805357281,
      "lon": 114.34827948764077
    },
    {
      "name": "重庆北",
      "lat": 29.612606660574883,
      "lon": 106.54738672520777
    },
    {
      "name": "沙坪坝",
      "lat": 29.556784127480263,
      "lon": 106.4572825422299
    },
    {
      "name": "贵阳",
      "lat": 26.560399728737927,
      "lon": 106.69865968651621
    },
    {
      "name": "贵阳北",
      "lat": 26.623155563071645,
      "lon": 106.670656293554
    },
    {
      "name": "贵安",
      "lat": 26.469121954462775,
      "lon": 106.48185632807187
    },
    {
      "name": "花溪大学城",
      "lat": 26.397133260379533,
      "lon": 106.62219191425915
    },
    {
      "name": "镇远",
      "lat": 27.038084005301258,
      "lon": 108.40568074861304
    },
    {
      "name": "成都东",
      "lat": 30.631450217612446,
      "lon": 104.1401649022085
    },
    {
      "name": "成都南",
      "lat": 30.60780331540759,
      "lon": 104.06603393318709
    },
    {
      "name": "双流机场",
      "lat": 30.571909587984113,
      "lon": 103.9542967823889
    },
    {
      "name": "都江堰",
      "lat": 30.96021576317202,
      "lon": 103.63699959423492
    },
    {
      "name": "犀浦",
      "lat": 30.759840973493045,
      "lon": 103.97020757577324
    },
    {
      "name": "广汉北",
      "lat": 31.011318621289885,
      "lon": 104.27299293985598
    },
    {
      "name": "黄龙九寨",
      "lat": 32.747465334226476,
      "lon": 103.61297324888412
    },
    {
      "name": "西昌西",
      "lat": 27.871463170315934,
      "lon": 102.16020381198604
    },
    {
      "name": "攀枝花南",
      "lat": 26.471605926022548,
      "lon": 101.74648043927098
    },
    {
      "name": "资阳北",
      "lat": 30.12850370504899,
      "lon": 104.6798534150265
    },
    {
      "name": "昆明",
      "lat": 25.01776553956105,
      "lon": 102.72035551324733
    },
    {
      "name": "昆明南",
      "lat": 24.87355665350111,
      "lon": 102.86010995477595
    },
    {
      "name": "丽江",
      "lat": 26.814219689042687,
      "lon": 100.2515118724141
    },
    {
      "name": "香格里拉",
      "lat": 27.813351217511432,
      "lon": 99.6885474305687
    },
    {
      "name": "兰州西",
      "lat": 36.069222301267544,
      "lon": 103.74972990369804
    },
    {
      "name": "天水",
      "lat": 34.5667142058386,
      "lon": 105.89484941668125
    },
    {
      "name": "天水南",
      "lat": 34.54994733714041,
      "lon": 105.85406558870962
    },
    {
      "name": "银川",
      "lat": 38.4907553901075,
      "lon": 106.17035207764346
    },
    {
      "name": "格尔木",
      "lat": 36.38343921898559,
      "lon": 94.90619064169725
    },
    {
      "name": "海东西",
      "lat": 36.50938323602268,
      "lon": 102.0529823672756
    },
    {
      "name": "拉萨",
      "lat": 29.62586847763857,
      "lon": 91.06817138506726
    },
    {
      "name": "日喀则",
      "lat": 29.22419253076742,
      "lon": 88.91301011715333
    }
  ]
}