{
  "railway": [
    {
      "name_zh": "北京",
      "name_en": "Beijing",
      "lat": 39.90251683186538,
      "lon": 116.41920331631096,
      "country": "cn"
    },
    {
      "name_zh": "北京南",
      "name_en": "Beijing S.",
      "lat": 39.863071601995294,
      "lon": 116.3728383919703,
      "country": "cn"
    },
    {
      "name_zh": "北京西",
      "name_en": "Beijing W.",
      "lat": 39.89257229374262,
      "lon": 116.31717265290587,
      "country": "cn"
    },
    {
      "name_zh": "北京北",
      "name_en": "Beijing N.",
      "lat": 39.94389911081975,
      "lon": 116.3468211352778,
      "country": "cn"
    },
    {
      "name_zh": "北京朝阳",
      "name_en": "Beijing Chaoyang",
      "lat": 39.943667567335694,
      "lon": 116.503225622054,
      "country": "cn"
    },
    {
      "name_zh": "北京丰台",
      "name_en": "Beijing Fengtai",
      "lat": 39.849629017642144,
      "lon": 116.2953934657941,
      "country": "cn"
    },
    {
      "name_zh": "清河",
      "name_en": "Qinghe",
      "lat": 40.04072273944787,
      "lon": 116.3077141352536,
      "country": "cn"
    },
    {
      "name_zh": "八达岭长城",
      "name_en": "Badaling Great Wall",
      "lat": 40.35802940915442,
      "lon": 116.00490988907565,
      "country": "cn"
    },
    {
      "name_zh": "八达岭",
      "name_en": "Badaling",
      "lat": 40.35887618890508,
      "lon": 115.99533382640618,
      "country": "cn"
    },
    {
      "name_zh": "延庆",
      "name_en": "Yanqing",
      "lat": 40.43521540522877,
      "lon": 115.97811916100417,
      "country": "cn"
    },
    {
      "name_zh": "康庄",
      "name_en": "Kangzhuang",
      "lat": 40.3788214819236,
      "lon": 115.89227236208376,
      "country": "cn"
    },
    {
      "name_zh": "黄土店",
      "name_en": "Huangtudian",
      "lat": 40.06824098566767,
      "lon": 116.35724261940351,
      "country": "cn"
    },
    {
      "name_zh": "北京大兴",
      "name_en": "Beijing Daxing",
      "lat": 39.719036682633124,
      "lon": 116.32274267353344,
      "country": "cn"
    },
    {
      "name_zh": "大兴机场",
      "name_en": "Daxing Airport",
      "lat": 39.51090008869052,
      "lon": 116.40950411410157,
      "country": "cn"
    },
    {
      "name_zh": "昌平北",
      "name_en": "Changping N.",
      "lat": 40.23001239069912,
      "lon": 116.2270952645293,
      "country": "cn"
    },
    {
      "name_zh": "怀柔北",
      "name_en": "Huairou N.",
      "lat": 40.40787563005983,
      "lon": 116.68642511256509,
      "country": "cn"
    },
    {
      "name_zh": "古北口",
      "name_en": "Gubeikou",
      "lat": 40.69051285382549,
      "lon": 117.1353398528768,
      "country": "cn"
    },
    {
      "name_zh": "顺义",
      "name_en": "Shunyi",
      "lat": 40.124765502132014,
      "lon": 116.6395981916796,
      "country": "cn"
    },
    {
      "name_zh": "燕山",
      "name_en": "Yanshan",
      "lat": 39.74798310747519,
      "lon": 115.9523484083735,
      "country": "cn"
    },
    {
      "name_zh": "天津",
      "name_en": "Tianjin",
      "lat": 39.13679161356966,
      "lon": 117.20371994928244,
      "country": "cn"
    },
    {
      "name_zh": "天津西",
      "name_en": "Tianjin W.",
      "lat": 39.15694549978822,
      "lon": 117.15722806478753,
      "country": "cn"
    },
    {
      "name_zh": "天津北",
      "name_en": "Tianjin N.",
      "lat": 39.165953507083266,
      "lon": 117.20321664042069,
      "country": "cn"
    },
    {
      "name_zh": "蓟州",
      "name_en": "Jizhou",
      "lat": 39.99368602097273,
      "lon": 117.36270598207112,
      "country": "cn"
    },
    {
      "name_zh": "蓟州北",
      "name_en": "Jizhou N.",
      "lat": 40.025453602663944,
      "lon": 117.39162775700188,
      "country": "cn"
    },
    {
      "name_zh": "石家庄",
      "name_en": "Shijiazhuang",
      "lat": 38.00943423743659,
      "lon": 114.47848725839017,
      "country": "cn"
    },
    {
      "name_zh": "唐山",
      "name_en": "Tangshan",
      "lat": 39.62286390003387,
      "lon": 118.11515202569242,
      "country": "cn"
    },
    {
      "name_zh": "承德",
      "name_en": "Chengde",
      "lat": 40.96309578753556,
      "lon": 117.9482607486502,
      "country": "cn"
    },
    {
      "name_zh": "承德南",
      "name_en": "Chengde S.",
      "lat": 40.883667871252605,
      "lon": 117.95870309971427,
      "country": "cn"
    },
    {
      "name_zh": "霸州西",
      "name_en": "Bazhou W.",
      "lat": 39.092988670791954,
      "lon": 116.34445713104759,
      "country": "cn"
    },
    {
      "name_zh": "霸州北",
      "name_en": "Bazhou N.",
      "lat": 39.18555757505842,
      "lon": 116.32109740790445,
      "country": "cn"
    },
    {
      "name_zh": "雄安",
      "name_en": "Xiong'an",
      "lat": 39.05562390768637,
      "lon": 116.154070856847,
      "country": "cn"
    },
    {
      "name_zh": "白洋淀",
      "name_en": "Baiyangdian",
      "lat": 39.06863307153378,
      "lon": 115.86890126638767,
      "country": "cn"
    },
    {
      "name_zh": "秦皇岛",
      "name_en": "Qinhuangdao",
      "lat": 39.964616088759904,
      "lon": 119.58622641890963,
      "country": "cn"
    },
    {
      "name_zh": "山海关",
      "name_en": "Shanhaiguan",
      "lat": 39.99940317808515,
      "lon": 119.76155216100267,
      "country": "cn"
    },
    {
      "name_zh": "北戴河",
      "name_en": "Beidaihe",
      "lat": 39.84985764546672,
      "lon": 119.41362020339368,
      "country": "cn"
    },
    {
      "name_zh": "张家口",
      "name_en": "Zhangjiakou",
      "lat": 40.75070389592844,
      "lon": 114.87673298573546,
      "country": "cn"
    },
    {
      "name_zh": "宣化",
      "name_en": "Xuanhua",
      "lat": 40.596602244458964,
      "lon": 115.05037749453838,
      "country": "cn"
    },
    {
      "name_zh": "燕郊",
      "name_en": "Yanjiao",
      "lat": 39.94057034116905,
      "lon": 116.81967268811295,
      "country": "cn"
    },
    {
      "name_zh": "呼和浩特",
      "name_en": "Hohhot",
      "lat": 40.82949919713881,
      "lon": 111.65830577468823,
      "country": "cn"
    },
    {
      "name_zh": "呼和浩特东",
      "name_en": "Hohhot E.",
      "lat": 40.84834347297365,
      "lon": 111.75933389941765,
      "country": "cn"
    },
    {
      "name_zh": "乌兰察布",
      "name_en": "Ulanqab",
      "lat": 40.96334500553499,
      "lon": 113.15225419626604,
      "country": "cn"
    },
    {
      "name_zh": "通辽",
      "name_en": "Tongliao",
      "lat": 43.60294065466664,
      "lon": 122.26642544920303,
      "country": "cn"
    },
    {
      "name_zh": "海拉尔",
      "name_en": "Hailar",
      "lat": 49.22843049893972,
      "lon": 119.73666301900384,
      "country": "cn"
    },
    {
      "name_zh": "哈尔滨",
      "name_en": "Harbin",
      "lat": 45.75814850773292,
      "lon": 126.62486048101105,
      "country": "cn"
    },
    {
      "name_zh": "哈尔滨东",
      "name_en": "Harbin E.",
      "lat": 45.784391128838905,
      "lon": 126.70713377209573,
      "country": "cn"
    },
    {
      "name_zh": "哈尔滨西",
      "name_en": "Harbin W.",
      "lat": 45.70538738155455,
      "lon": 126.571041505842,
      "country": "cn"
    },
    {
      "name_zh": "呼兰",
      "name_en": "Hulan",
      "lat": 45.99626325325346,
      "lon": 126.64056907519071,
      "country": "cn"
    },
    {
      "name_zh": "牡丹江",
      "name_en": "Mudanjiang",
      "lat": 44.589049141216684,
      "lon": 129.6062800166375,
      "country": "cn"
    },
    {
      "name_zh": "横道河子东",
      "name_en": "Hengdaohezi E.",
      "lat": 44.78892899918404,
      "lon": 129.09908023977232,
      "country": "cn"
    },
    {
      "name_zh": "绥芬河",
      "name_en": "Suifenhe",
      "lat": 44.404199395636084,
      "lon": 131.12917470835512,
      "country": "cn"
    },
    {
      "name_zh": "齐齐哈尔",
      "name_en": "Qiqihar",
      "lat": 47.33807101394388,
      "lon": 123.98917225353102,
      "country": "cn"
    },
    {
      "name_zh": "漠河",
      "name_en": "Mohe",
      "lat": 52.98670899087415,
      "lon": 122.50051393533658,
      "country": "cn"
    },
    {
      "name_zh": "吉林",
      "name_en": "Jilin",
      "lat": 43.85702217767775,
      "lon": 126.57245129905675,
      "country": "cn"
    },
    {
      "name_zh": "长白山",
      "name_en": "Changbaishan",
      "lat": 42.45958927708683,
      "lon": 128.12237464890967,
      "country": "cn"
    },
    {
      "name_zh": "沈阳北",
      "name_en": "Shenyang N.",
      "lat": 41.816959834841256,
      "lon": 123.42981485329194,
      "country": "cn"
    },
    {
      "name_zh": "大连",
      "name_en": "Dalian",
      "lat": 38.9213887498692,
      "lon": 121.62807910859019,
      "country": "cn"
    },
    {
      "name_zh": "大连北",
      "name_en": "Dalian N.",
      "lat": 39.01597783973137,
      "lon": 121.60137704087084,
      "country": "cn"
    },
    {
      "name_zh": "济南",
      "name_en": "Jinan",
      "lat": 36.670730867486306,
      "lon": 116.98507190806818,
      "country": "cn"
    },
    {
      "name_zh": "济南西",
      "name_en": "Jinan W.",
      "lat": 36.66920577671152,
      "lon": 116.88790630327794,
      "country": "cn"
    },
    {
      "name_zh": "淄博",
      "name_en": "Zibo",
      "lat": 36.78835590966978,
      "lon": 118.05155765341256,
      "country": "cn"
    },
    {
      "name_zh": "南博山",
      "name_en": "South Boshan",
      "lat": 36.3575961412847,
      "lon": 117.95506582123681,
      "country": "cn"
    },
    {
      "name_zh": "泰安",
      "name_en": "Tai'an",
      "lat": 36.17208334751856,
      "lon": 117.02934831410124,
      "country": "cn"
    },
    {
      "name_zh": "泰山",
      "name_en": "Taishan",
      "lat": 36.18685678614764,
      "lon": 117.10362293733482,
      "country": "cn"
    },
    {
      "name_zh": "青岛北",
      "name_en": "Qingdao N.",
      "lat": 36.168693614235906,
      "lon": 120.36952367609534,
      "country": "cn"
    },
    {
      "name_zh": "兖州",
      "name_en": "Yanzhou",
      "lat": 35.55621375494819,
      "lon": 116.83554059534151,
      "country": "cn"
    },
    {
      "name_zh": "上海",
      "name_en": "Shanghai",
      "lat": 31.251389985491077,
      "lon": 121.44852077619514,
      "country": "cn"
    },
    {
      "name_zh": "上海南",
      "name_en": "Shanghai S.",
      "lat": 31.15386306745182,
      "lon": 121.42698250488974,
      "country": "cn"
    },
    {
      "name_zh": "上海虹桥",
      "name_en": "Shanghai Hongqiao",
      "lat": 31.196703940236098,
      "lon": 121.31480093175676,
      "country": "cn"
    },
    {
      "name_zh": "上海西",
      "name_en": "Shanghai W.",
      "lat": 31.264134900245033,
      "lon": 121.39815579198297,
      "country": "cn"
    },
    {
      "name_zh": "上海松江",
      "name_en": "Shanghai Songjiang",
      "lat": 30.985033751064773,
      "lon": 121.2253098167985,
      "country": "cn"
    },
    {
      "name_zh": "[松江北]",
      "name_en": "[Songjiang N.]",
      "lat": 31.001680448217186,
      "lon": 121.22340195007988,
      "country": "cn"
    },
    {
      "name_zh": "南京",
      "name_en": "Nanjing",
      "lat": 32.0901197129243,
      "lon": 118.79304118270053,
      "country": "cn"
    },
    {
      "name_zh": "南京南",
      "name_en": "Nanjing S.",
      "lat": 31.97006294320915,
      "lon": 118.79387667845742,
      "country": "cn"
    },
    {
      "name_zh": "苏州",
      "name_en": "Suzhou",
      "lat": 31.331841727439397,
      "lon": 120.60668120993446,
      "country": "cn"
    },
    {
      "name_zh": "苏州北",
      "name_en": "Suzhou N.",
      "lat": 31.423240834124723,
      "lon": 120.63928569284181,
      "country": "cn"
    },
    {
      "name_zh": "苏州园区",
      "name_en": "Suzhou SIP",
      "lat": 31.34368545870389,
      "lon": 120.70623304061772,
      "country": "cn"
    },
    {
      "name_zh": "苏州新区",
      "name_en": "Suzhou SND",
      "lat": 31.374043102258064,
      "lon": 120.52010900774503,
      "country": "cn"
    },
    {
      "name_zh": "苏州南",
      "name_en": "Suzhou S.",
      "lat": 31.065315295146863,
      "lon": 120.795514879163,
      "country": "cn"
    },
    {
      "name_zh": "太仓",
      "name_en": "Taicang",
      "lat": 31.512011755694488,
      "lon": 121.19214461488349,
      "country": "cn"
    },
    {
      "name_zh": "常熟",
      "name_en": "Changshu",
      "lat": 31.69953406620185,
      "lon": 120.77599650005705,
      "country": "cn"
    },
    {
      "name_zh": "张家港",
      "name_en": "Zhangjiagang",
      "lat": 31.819379277084465,
      "lon": 120.66974598457865,
      "country": "cn"
    },
    {
      "name_zh": "常州",
      "name_en": "Changzhou",
      "lat": 31.787333965685733,
      "lon": 119.96919936126324,
      "country": "cn"
    },
    {
      "name_zh": "武进",
      "name_en": "Wujin",
      "lat": 31.66121261206861,
      "lon": 119.94201484469006,
      "country": "cn"
    },
    {
      "name_zh": "镇江",
      "name_en": "Zhenjiang",
      "lat": 32.19958569262872,
      "lon": 119.42736665939108,
      "country": "cn"
    },
    {
      "name_zh": "徐州东",
      "name_en": "Xuzhou E.",
      "lat": 34.268628921863076,
      "lon": 117.29772989306043,
      "country": "cn"
    },
    {
      "name_zh": "宿迁",
      "name_en": "Suqian",
      "lat": 33.87590990443698,
      "lon": 118.27633556460356,
      "country": "cn"
    },
    {
      "name_zh": "淮安东",
      "name_en": "Huai'an E.",
      "lat": 33.57012409244364,
      "lon": 119.18274662655037,
      "country": "cn"
    },
    {
      "name_zh": "连云港",
      "name_en": "Lianyungang",
      "lat": 34.61030284713549,
      "lon": 119.15825145908971,
      "country": "cn"
    },
    {
      "name_zh": "盐城",
      "name_en": "Yancheng",
      "lat": 33.383739151612694,
      "lon": 120.16919028422569,
      "country": "cn"
    },
    {
      "name_zh": "海安",
      "name_en": "Hai'an",
      "lat": 32.549268419869655,
      "lon": 120.50033013841721,
      "country": "cn"
    },
    {
      "name_zh": "扬州",
      "name_en": "Yangzhou",
      "lat": 32.39162253788777,
      "lon": 119.34539575680259,
      "country": "cn"
    },
    {
      "name_zh": "杭州",
      "name_en": "Hangzhou",
      "lat": 30.246198247605243,
      "lon": 120.17732570765959,
      "country": "cn"
    },
    {
      "name_zh": "杭州东",
      "name_en": "Hangzhou E.",
      "lat": 30.293964120120336,
      "lon": 120.20789203537153,
      "country": "cn"
    },
    {
      "name_zh": "杭州南",
      "name_en": "Hangzhou S.",
      "lat": 30.174534659674652,
      "lon": 120.28871306757257,
      "country": "cn"
    },
    {
      "name_zh": "绍兴",
      "name_en": "Shaoxing",
      "lat": 30.016434567091963,
      "lon": 120.57474188126753,
      "country": "cn"
    },
    {
      "name_zh": "绍兴北",
      "name_en": "Shaoxing N.",
      "lat": 30.102818704432888,
      "lon": 120.53299429640205,
      "country": "cn"
    },
    {
      "name_zh": "诸暨",
      "name_en": "Zhuji",
      "lat": 29.730064681822586,
      "lon": 120.18103791581363,
      "country": "cn"
    },
    {
      "name_zh": "宁波",
      "name_en": "Ningbo",
      "lat": 29.86523310111439,
      "lon": 121.53240165975718,
      "country": "cn"
    },
    {
      "name_zh": "温州南",
      "name_en": "Wenzhou S.",
      "lat": 27.96931292761803,
      "lon": 120.58120830680188,
      "country": "cn"
    },
    {
      "name_zh": "义乌",
      "name_en": "Yiwu",
      "lat": 29.380372129125153,
      "lon": 120.03867725437429,
      "country": "cn"
    },
    {
      "name_zh": "横店",
      "name_en": "Hengdian",
      "lat": 29.21757851721257,
      "lon": 120.26017747999752,
      "country": "cn"
    },
    {
      "name_zh": "湖州",
      "name_en": "Huzhou",
      "lat": 30.86427385725074,
      "lon": 120.01942767918646,
      "country": "cn"
    },
    {
      "name_zh": "湖州南浔",
      "name_en": "Huzhou Nanxun",
      "lat": 30.829533768926208,
      "lon": 120.40269565802518,
      "country": "cn"
    },
    {
      "name_zh": "嘉兴",
      "name_en": "Jiaxing",
      "lat": 30.7669688374806,
      "lon": 120.75881725599666,
      "country": "cn"
    },
    {
      "name_zh": "嘉兴南",
      "name_en": "Jiaxing S.",
      "lat": 30.693214824585255,
      "lon": 120.7949372694754,
      "country": "cn"
    },
    {
      "name_zh": "海宁",
      "name_en": "Haining",
      "lat": 30.535639352570467,
      "lon": 120.68067132563044,
      "country": "cn"
    },
    {
      "name_zh": "衢州",
      "name_en": "Quzhou",
      "lat": 28.92759893460416,
      "lon": 118.8761674684662,
      "country": "cn"
    },
    {
      "name_zh": "合肥南",
      "name_en": "Hefei S.",
      "lat": 31.80095793773525,
      "lon": 117.28475916158543,
      "country": "cn"
    },
    {
      "name_zh": "黄山北",
      "name_en": "Huangshan N.",
      "lat": 29.818050729180705,
      "lon": 118.26761786578294,
      "country": "cn"
    },
    {
      "name_zh": "黟县东",
      "name_en": "Yixian E.",
      "lat": 29.887331752319984,
      "lon": 118.0423665037031,
      "country": "cn"
    },
    {
      "name_zh": "芜湖",
      "name_en": "Wuhu",
      "lat": 31.350148571639867,
      "lon": 118.38738523245242,
      "country": "cn"
    },
    {
      "name_zh": "芜湖南",
      "name_en": "Wuhu S.",
      "lat": 31.25082910679063,
      "lon": 118.37332715485907,
      "country": "cn"
    },
    {
      "name_zh": "池州",
      "name_en": "Chizhou",
      "lat": 30.622131889389582,
      "lon": 117.51612621159009,
      "country": "cn"
    },
    {
      "name_zh": "福州",
      "name_en": "Fuzhou",
      "lat": 26.11716659667765,
      "lon": 119.31541498361173,
      "country": "cn"
    },
    {
      "name_zh": "福州南",
      "name_en": "Fuzhou S.",
      "lat": 25.988278554586817,
      "lon": 119.3856010587736,
      "country": "cn"
    },
    {
      "name_zh": "厦门",
      "name_en": "Xiamen",
      "lat": 24.470208910328775,
      "lon": 118.11122506789245,
      "country": "cn"
    },
    {
      "name_zh": "厦门北",
      "name_en": "Xiamen N.",
      "lat": 24.638772345089258,
      "lon": 118.06902974031824,
      "country": "cn"
    },
    {
      "name_zh": "泉州",
      "name_en": "Quanzhou",
      "lat": 24.976173266848793,
      "lon": 118.56322108992184,
      "country": "cn"
    },
    {
      "name_zh": "漳州",
      "name_en": "Zhangzhou",
      "lat": 24.460352236342057,
      "lon": 117.71182602010276,
      "country": "cn"
    },
    {
      "name_zh": "广州东",
      "name_en": "Guangzhou E.",
      "lat": 23.1528774908218,
      "lon": 113.31997695931682,
      "country": "cn"
    },
    {
      "name_zh": "广州南",
      "name_en": "Guangzhou S.",
      "lat": 22.991076660275926,
      "lon": 113.26175790182593,
      "country": "cn"
    },
    {
      "name_zh": "广州北",
      "name_en": "Guangzhou N,",
      "lat": 23.37997151888652,
      "lon": 113.19841822764907,
      "country": "cn"
    },
    {
      "name_zh": "广州白云",
      "name_en": "Guangzhou Baiyun",
      "lat": 23.193937516319735,
      "lon": 113.24103591331762,
      "country": "cn"
    },
    {
      "name_zh": "广州新塘",
      "name_en": "Guangzhou Xintang",
      "lat": 23.136823893616818,
      "lon": 113.60112979289717,
      "country": "cn"
    },
    {
      "name_zh": "清城",
      "name_en": "Qingcheng",
      "lat": 23.65600335714527,
      "lon": 113.06102288126371,
      "country": "cn"
    },
    {
      "name_zh": "白云机场北",
      "name_en": "Baiyun Airport N.",
      "lat": 23.398985584415296,
      "lon": 113.30054110289296,
      "country": "cn"
    },
    {
      "name_zh": "深圳北",
      "name_en": "Shenzhen N.",
      "lat": 22.60995436345897,
      "lon": 114.02328864141793,
      "country": "cn"
    },
    {
      "name_zh": "深圳",
      "name_en": "Shenzhen",
      "lat": 22.535524963423967,
      "lon": 114.11266776494178,
      "country": "cn"
    },
    {
      "name_zh": "福田",
      "name_en": "Futian",
      "lat": 22.540890099853158,
      "lon": 114.0518913857049,
      "country": "cn"
    },
    {
      "name_zh": "东莞",
      "name_en": "Dongguan",
      "lat": 23.092444795424584,
      "lon": 113.85421182921415,
      "country": "cn"
    },
    {
      "name_zh": "西平西",
      "name_en": "Xiping W.",
      "lat": 22.996361609386856,
      "lon": 113.74056955362309,
      "country": "cn"
    },
    {
      "name_zh": "惠州南",
      "name_en": "Huizhou S.",
      "lat": 22.78756641827537,
      "lon": 114.48740336598532,
      "country": "cn"
    },
    {
      "name_zh": "佛山西",
      "name_en": "Foshan W.",
      "lat": 23.08234211705062,
      "lon": 113.02825832308483,
      "country": "cn"
    },
    {
      "name_zh": "顺德北",
      "name_en": "Shunde N.",
      "lat": 22.96444665712523,
      "lon": 113.12419295649974,
      "country": "cn"
    },
    {
      "name_zh": "张槎",
      "name_en": "Zhangcha",
      "lat": 23.011694846353375,
      "lon": 113.06220001140328,
      "country": "cn"
    },
    {
      "name_zh": "深圳机场",
      "name_en": "Shenzhen Airport",
      "lat": 22.624715208599547,
      "lon": 113.8062062452849,
      "country": "cn"
    },
    {
      "name_zh": "东莞西",
      "name_en": "Dongguan W.",
      "lat": 23.0108701670067,
      "lon": 113.62090639693486,
      "country": "cn"
    },
    {
      "name_zh": "琶洲",
      "name_en": "Pazhou",
      "lat": 23.102843298543988,
      "lon": 113.36270639801295,
      "country": "cn"
    },
    {
      "name_zh": "香港西九龙",
      "name_en": "HongKong West Kowloon",
      "lat": 22.303881872182092,
      "lon": 114.16544282129168,
      "country": "cn"
    },
    {
      "name_zh": "南宁",
      "name_en": "Nanning",
      "lat": 22.82913862005011,
      "lon": 108.31152281324502,
      "country": "cn"
    },
    {
      "name_zh": "南宁东",
      "name_en": "Nanning E.",
      "lat": 22.845280153187257,
      "lon": 108.40960649225757,
      "country": "cn"
    },
    {
      "name_zh": "吴圩机场",
      "name_en": "Wuxu Airport",
      "lat": 22.602692232310677,
      "lon": 108.18295979077008,
      "country": "cn"
    },
    {
      "name_zh": "崇左南",
      "name_en": "Chongzuo S.",
      "lat": 22.359854208433052,
      "lon": 107.39085162042458,
      "country": "cn"
    },
    {
      "name_zh": "玉林北",
      "name_en": "Yulin N.",
      "lat": 22.72427579943031,
      "lon": 110.2452279275914,
      "country": "cn"
    },
    {
      "name_zh": "玉林",
      "name_en": "Yulin",
      "lat": 22.599788443525103,
      "lon": 110.15320912473803,
      "country": "cn"
    },
    {
      "name_zh": "金城江",
      "name_en": "Jinchengjiang",
      "lat": 24.701790013901935,
      "lon": 108.06138245221688,
      "country": "cn"
    },
    {
      "name_zh": "河池西",
      "name_en": "Hechi W.",
      "lat": 24.714363714720736,
      "lon": 108.17119732087694,
      "country": "cn"
    },
    {
      "name_zh": "美兰",
      "name_en": "Meilan Airport",
      "lat": 19.943527637610387,
      "lon": 110.45695515346851,
      "country": "cn"
    },
    {
      "name_zh": "城西",
      "name_en": "Chengxi",
      "lat": 19.998118622950027,
      "lon": 110.32769005097158,
      "country": "cn"
    },
    {
      "name_zh": "海口东",
      "name_en": "Haikou E.",
      "lat": 19.985488301760192,
      "lon": 110.33883415101543,
      "country": "cn"
    },
    {
      "name_zh": "三亚",
      "name_en": "Sanya",
      "lat": 18.29778620951653,
      "lon": 109.48897954773243,
      "country": "cn"
    },
    {
      "name_zh": "崖州",
      "name_en": "Yazhou",
      "lat": 18.37769039432866,
      "lon": 109.15349553343627,
      "country": "cn"
    },
    {
      "name_zh": "凤凰机场",
      "name_en": "Fenghuang Airport",
      "lat": 18.310560986230048,
      "lon": 109.4046879034133,
      "country": "cn"
    },
    {
      "name_zh": "南昌",
      "name_en": "Nanchang",
      "lat": 28.665071424142624,
      "lon": 115.91311276860685,
      "country": "cn"
    },
    {
      "name_zh": "新余北",
      "name_en": "Xinyu N.",
      "lat": 27.91473679587094,
      "lon": 114.8918784116447,
      "country": "cn"
    },
    {
      "name_zh": "宜春",
      "name_en": "Yichun",
      "lat": 27.792421410075782,
      "lon": 114.43133934660864,
      "country": "cn"
    },
    {
      "name_zh": "长沙",
      "name_en": "Changsha",
      "lat": 28.197433875834648,
      "lon": 113.00769470176847,
      "country": "cn"
    },
    {
      "name_zh": "长沙南",
      "name_en": "Changsha S.",
      "lat": 28.14943031859128,
      "lon": 113.0581559246885,
      "country": "cn"
    },
    {
      "name_zh": "谷山",
      "name_en": "Gushan",
      "lat": 28.233342360490035,
      "lon": 112.9022914706018,
      "country": "cn"
    },
    {
      "name_zh": "开福寺",
      "name_en": "Kaifusi",
      "lat": 28.22673864008329,
      "lon": 112.9746653303339,
      "country": "cn"
    },
    {
      "name_zh": "湘潭",
      "name_en": "Xiangtan",
      "lat": 27.878917674130403,
      "lon": 112.90694185767332,
      "country": "cn"
    },
    {
      "name_zh": "湘潭北",
      "name_en": "Xiangtan N.",
      "lat": 27.96839906898301,
      "lon": 112.93674545313802,
      "country": "cn"
    },
    {
      "name_zh": "凤凰古城",
      "name_en": "Fenghuang Ancient Town",
      "lat": 28.02029300048813,
      "lon": 109.59879752886502,
      "country": "cn"
    },
    {
      "name_zh": "武汉",
      "name_en": "Wuhan",
      "lat": 30.60937003310611,
      "lon": 114.41999747106429,
      "country": "cn"
    },
    {
      "name_zh": "汉口",
      "name_en": "Hankou",
      "lat": 30.62030139680355,
      "lon": 114.25005257363782,
      "country": "cn"
    },
    {
      "name_zh": "武昌",
      "name_en": "Wuchang",
      "lat": 30.532769574806913,
      "lon": 114.31176410134252,
      "country": "cn"
    },
    {
      "name_zh": "宜昌北",
      "name_en": "Yichang N.",
      "lat": 30.748088477299085,
      "lon": 111.46948750268938,
      "country": "cn"
    },
    {
      "name_zh": "郑州",
      "name_en": "Zhengzhou",
      "lat": 34.74692824568525,
      "lon": 113.65200652594562,
      "country": "cn"
    },
    {
      "name_zh": "郑州东",
      "name_en": "Zhengzhou E.",
      "lat": 34.760064689235094,
      "lon": 113.7732254005277,
      "country": "cn"
    },
    {
      "name_zh": "开封",
      "name_en": "Kaifeng",
      "lat": 34.77167805357281,
      "lon": 114.34827948764077,
      "country": "cn"
    },
    {
      "name_zh": "重庆北",
      "name_en": "Chongqing N.",
      "lat": 29.612606660574883,
      "lon": 106.54738672520777,
      "country": "cn"
    },
    {
      "name_zh": "沙坪坝",
      "name_en": "Shapingba",
      "lat": 29.556784127480263,
      "lon": 106.4572825422299,
      "country": "cn"
    },
    {
      "name_zh": "贵阳",
      "name_en": "Guiyang",
      "lat": 26.560399728737927,
      "lon": 106.69865968651621,
      "country": "cn"
    },
    {
      "name_zh": "贵阳北",
      "name_en": "Guiyang N.",
      "lat": 26.623155563071645,
      "lon": 106.670656293554,
      "country": "cn"
    },
    {
      "name_zh": "贵安",
      "name_en": "Gui'an",
      "lat": 26.469121954462775,
      "lon": 106.48185632807187,
      "country": "cn"
    },
    {
      "name_zh": "花溪大学城",
      "name_en": "Huaxi University Town",
      "lat": 26.397133260379533,
      "lon": 106.62219191425915,
      "country": "cn"
    },
    {
      "name_zh": "镇远",
      "name_en": "Zhenyuan",
      "lat": 27.038084005301258,
      "lon": 108.40568074861304,
      "country": "cn"
    },
    {
      "name_zh": "成都东",
      "name_en": "Chengdu E.",
      "lat": 30.631450217612446,
      "lon": 104.1401649022085,
      "country": "cn"
    },
    {
      "name_zh": "成都南",
      "name_en": "Chengdu S.",
      "lat": 30.60780331540759,
      "lon": 104.06603393318709,
      "country": "cn"
    },
    {
      "name_zh": "双流机场",
      "name_en": "Shuangliu Airport",
      "lat": 30.571909587984113,
      "lon": 103.9542967823889,
      "country": "cn"
    },
    {
      "name_zh": "都江堰",
      "name_en": "Dujiangyan",
      "lat": 30.96021576317202,
      "lon": 103.63699959423492,
      "country": "cn"
    },
    {
      "name_zh": "犀浦",
      "name_en": "Xipu",
      "lat": 30.759840973493045,
      "lon": 103.97020757577324,
      "country": "cn"
    },
    {
      "name_zh": "广汉北",
      "name_en": "Guanghan N.",
      "lat": 31.011318621289885,
      "lon": 104.27299293985598,
      "country": "cn"
    },
    {
      "name_zh": "黄龙九寨",
      "name_en": "Huanglong Jiuzhai",
      "lat": 32.747465334226476,
      "lon": 103.61297324888412,
      "country": "cn"
    },
    {
      "name_zh": "西昌西",
      "name_en": "Xichang W.",
      "lat": 27.871463170315934,
      "lon": 102.16020381198604,
      "country": "cn"
    },
    {
      "name_zh": "攀枝花南",
      "name_en": "Panzhihua S.",
      "lat": 26.471605926022548,
      "lon": 101.74648043927098,
      "country": "cn"
    },
    {
      "name_zh": "资阳北",
      "name_en": "Ziyang N.",
      "lat": 30.12850370504899,
      "lon": 104.6798534150265,
      "country": "cn"
    },
    {
      "name_zh": "昆明",
      "name_en": "Kunming",
      "lat": 25.01776553956105,
      "lon": 102.72035551324733,
      "country": "cn"
    },
    {
      "name_zh": "昆明南",
      "name_en": "Kunming S.",
      "lat": 24.87355665350111,
      "lon": 102.86010995477595,
      "country": "cn"
    },
    {
      "name_zh": "普洱",
      "name_en": "Pu'er",
      "lat": 22.778273433054583,
      "lon": 100.94076759541565,
      "country": "cn"
    },
    {
      "name_zh": "丽江",
      "name_en": "Lijiang",
      "lat": 26.814219689042687,
      "lon": 100.2515118724141,
      "country": "cn"
    },
    {
      "name_zh": "香格里拉",
      "name_en": "Shangri-La",
      "lat": 27.813351217511432,
      "lon": 99.6885474305687,
      "country": "cn"
    },
    {
      "name_zh": "兰州西",
      "name_en": "Lanzhou W.",
      "lat": 36.069222301267544,
      "lon": 103.74972990369804,
      "country": "cn"
    },
    {
      "name_zh": "天水",
      "name_en": "Tianshui",
      "lat": 34.5667142058386,
      "lon": 105.89484941668125,
      "country": "cn"
    },
    {
      "name_zh": "天水南",
      "name_en": "Tianshui S.",
      "lat": 34.54994733714041,
      "lon": 105.85406558870962,
      "country": "cn"
    },
    {
      "name_zh": "银川",
      "name_en": "Yinchuan",
      "lat": 38.4907553901075,
      "lon": 106.17035207764346,
      "country": "cn"
    },
    {
      "name_zh": "格尔木",
      "name_en": "Golmud",
      "lat": 36.38343921898559,
      "lon": 94.90619064169725,
      "country": "cn"
    },
    {
      "name_zh": "海东西",
      "name_en": "Haidong W.",
      "lat": 36.50938323602268,
      "lon": 102.0529823672756,
      "country": "cn"
    },
    {
      "name_zh": "拉萨",
      "name_en": "Lhasa",
      "lat": 29.62586847763857,
      "lon": 91.06817138506726,
      "country": "cn"
    },
    {
      "name_zh": "日喀则",
      "name_en": "Shigatse",
      "lat": 29.22419253076742,
      "lon": 88.91301011715333,
      "country": "cn"
    }
  ]
}