{
  "railway": [
    {
      "name_zh": "北京",
      "name_en": "Beijing",
      "lat": 39.90144,
      "lon": 116.42113,
      "country": "cr",
      "code": "10001",
      "lines": [
        "京沪线",
        "京哈线",
        "北京直径线"
      ]
    },
    {
      "name_zh": "北京南",
      "name_en": "Beijing S.",
      "lat": 39.863072,
      "lon": 116.372838,
      "country": "cr",
      "code": "10010",
      "lines": [
        "京沪线",
        "京沪高速线",
        "京津城际线"
      ]
    },
    {
      "name_zh": "北京西",
      "name_en": "Beijing W.",
      "lat": 39.892572,
      "lon": 116.317173,
      "country": "cr",
      "code": "21152",
      "lines": [
        "西长线",
        "北京直径线",
        "京广高速线京石段",
        "京雄城际线"
      ]
    },
    {
      "name_zh": "北京北",
      "name_en": "Beijing N.",
      "lat": 39.943899,
      "lon": 116.346821,
      "country": "cr",
      "code": "12713",
      "lines": [
        "京包客运专线京呼段"
      ]
    },
    {
      "name_zh": "北京朝阳",
      "name_en": "Beijing Chaoyang",
      "lat": 39.943668,
      "lon": 116.503226,
      "country": "cr",
      "code": "11389",
      "lines": [
        "东星线",
        "京哈高速线京沈段"
      ]
    },
    {
      "name_zh": "北京丰台",
      "name_en": "Beijing Fengtai",
      "lat": 39.849629,
      "lon": 116.295393,
      "country": "cr",
      "code": "10025",
      "lines": [
        "京沪线",
        "丰沙线"
      ]
    },
    {
      "name_zh": "清河",
      "name_en": "Qinghe",
      "lat": 40.040723,
      "lon": 116.307714,
      "country": "cr",
      "code": "12707",
      "lines": [
        "京包客运专线京呼段"
      ]
    },
    {
      "name_zh": "八达岭长城",
      "name_en": "Badaling Great Wall",
      "lat": 40.358029,
      "lon": 116.00491,
      "country": "cr",
      "code": "12181",
      "lines": [
        "京包客运专线京呼段"
      ]
    },
    {
      "name_zh": "八达岭",
      "name_en": "Badaling",
      "lat": 40.358876,
      "lon": 115.995334,
      "country": "cr",
      "code": "12285",
      "lines": [
        "京包线北京段"
      ]
    },
    {
      "name_zh": "延庆",
      "name_en": "Yanqing",
      "lat": 40.435215,
      "lon": 115.978119,
      "country": "cr",
      "code": "12224",
      "lines": [
        "康延线",
        "延庆线"
      ]
    },
    {
      "name_zh": "康庄",
      "name_en": "Kangzhuang",
      "lat": 40.378821,
      "lon": 115.892272,
      "country": "cr",
      "code": "12221",
      "lines": [
        "京包线北京段",
        "康延线"
      ]
    },
    {
      "name_zh": "黄土店",
      "name_en": "Huangtudian",
      "lat": 40.068241,
      "lon": 116.357243,
      "country": "cr",
      "code": "12167",
      "lines": [
        "京包线北京段"
      ]
    },
    {
      "name_zh": "北京大兴",
      "name_en": "Beijing Daxing",
      "lat": 39.719037,
      "lon": 116.322743,
      "country": "cr",
      "code": "21156",
      "lines": [
        "京雄城际线"
      ]
    },
    {
      "name_zh": "大兴机场",
      "name_en": "Daxing Airport",
      "lat": 39.5109,
      "lon": 116.409504,
      "country": "cr",
      "code": "21158",
      "lines": [
        "京雄城际线"
      ]
    },
    {
      "name_zh": "昌平北",
      "name_en": "Changping N.",
      "lat": 40.230012,
      "lon": 116.227095,
      "country": "cr",
      "code": "11609",
      "lines": [
        "京通线"
      ]
    },
    {
      "name_zh": "怀柔北",
      "name_en": "Huairou N.",
      "lat": 40.407876,
      "lon": 116.686425,
      "country": "cr",
      "code": "11630",
      "lines": [
        "京通线"
      ]
    },
    {
      "name_zh": "古北口",
      "name_en": "Gubeikou",
      "lat": 40.690513,
      "lon": 117.13534,
      "country": "cr",
      "code": "11675",
      "lines": [
        "京通线"
      ]
    },
    {
      "name_zh": "顺义",
      "name_en": "Shunyi",
      "lat": 40.124766,
      "lon": 116.639598,
      "country": "cr",
      "code": "11366",
      "lines": [
        "京承线北京段"
      ]
    },
    {
      "name_zh": "燕山",
      "name_en": "Yanshan",
      "lat": 39.747983,
      "lon": 115.952348,
      "country": "cr",
      "code": "14195",
      "lines": [
        "京原线"
      ]
    },
    {
      "name_zh": "天津",
      "name_en": "Tianjin",
      "lat": 39.136792,
      "lon": 117.20372,
      "country": "cr",
      "code": "10157",
      "lines": [
        "京津城际线",
        "津秦高速线"
      ]
    },
    {
      "name_zh": "天津西",
      "name_en": "Tianjin W.",
      "lat": 39.156945,
      "lon": 117.157228,
      "country": "cr",
      "code": "16010",
      "lines": [
        "京沪线",
        "南仓城际高速联络线",
        "津霸线",
        "津秦高速线"
      ]
    },
    {
      "name_zh": "天津北",
      "name_en": "Tianjin N.",
      "lat": 39.165954,
      "lon": 117.203217,
      "country": "cr",
      "code": "10148",
      "lines": [
        "京沪线"
      ]
    },
    {
      "name_zh": "蓟州",
      "name_en": "Jizhou",
      "lat": 39.993686,
      "lon": 117.362706,
      "country": "cr",
      "code": "11132",
      "lines": [
        "京哈线"
      ]
    },
    {
      "name_zh": "蓟州北",
      "name_en": "Jizhou N.",
      "lat": 40.025454,
      "lon": 117.391628,
      "country": "cr",
      "code": "10526",
      "lines": [
        "津蓟线"
      ]
    },
    {
      "name_zh": "石家庄",
      "name_en": "Shijiazhuang",
      "lat": 38.009434,
      "lon": 114.478487,
      "country": "cr",
      "code": "20372",
      "lines": [
        "京广高速线京石段"
      ]
    },
    {
      "name_zh": "唐山",
      "name_en": "Tangshan",
      "lat": 39.622864,
      "lon": 118.115152,
      "country": "cr",
      "code": "10214",
      "lines": [
        "张唐线",
        "津秦高速线"
      ]
    },
    {
      "name_zh": "承德",
      "name_en": "Chengde",
      "lat": 40.963096,
      "lon": 117.948261,
      "country": "cr",
      "code": "11492",
      "lines": [
        "京承线承德段",
        "承隆线"
      ]
    },
    {
      "name_zh": "承德南",
      "name_en": "Chengde S.",
      "lat": 40.883668,
      "lon": 117.958703,
      "country": "cr",
      "code": "52920",
      "lines": [
        "京哈高速线京沈段"
      ]
    },
    {
      "name_zh": "霸州西",
      "name_en": "Bazhou W.",
      "lat": 39.092989,
      "lon": 116.344457,
      "country": "cr",
      "code": "20383",
      "lines": [
        "霸徐线",
        "津霸线"
      ]
    },
    {
      "name_zh": "霸州北",
      "name_en": "Bazhou N.",
      "lat": 39.185558,
      "lon": 116.321097,
      "country": "cr",
      "code": "21162",
      "lines": [
        "京雄城际线"
      ]
    },
    {
      "name_zh": "雄安",
      "name_en": "Xiong'an",
      "lat": 39.055624,
      "lon": 116.154071,
      "country": "cr",
      "code": "21164",
      "lines": [
        "京雄城际线"
      ]
    },
    {
      "name_zh": "白洋淀",
      "name_en": "Baiyangdian",
      "lat": 39.068633,
      "lon": 115.868901,
      "country": "cr",
      "code": "20387",
      "lines": [
        "霸徐线"
      ]
    },
    {
      "name_zh": "秦皇岛",
      "name_en": "Qinhuangdao",
      "lat": 39.964616,
      "lon": 119.586226,
      "country": "cr",
      "code": "10319",
      "lines": [
        "京哈线",
        "津秦高速线"
      ]
    },
    {
      "name_zh": "山海关",
      "name_en": "Shanhaiguan",
      "lat": 39.999403,
      "lon": 119.761552,
      "country": "cr",
      "code": "10331",
      "lines": [
        "京哈线"
      ]
    },
    {
      "name_zh": "北戴河",
      "name_en": "Beidaihe",
      "lat": 39.849858,
      "lon": 119.41362,
      "country": "cr",
      "code": "10307",
      "lines": [
        "京哈线",
        "津秦高速线"
      ]
    },
    {
      "name_zh": "张家口",
      "name_en": "Zhangjiakou",
      "lat": 40.750704,
      "lon": 114.876733,
      "country": "cr",
      "code": "12782",
      "lines": [
        "京包客运专线京呼段"
      ]
    },
    {
      "name_zh": "宣化",
      "name_en": "Xuanhua",
      "lat": 40.596602,
      "lon": 115.050377,
      "country": "cr",
      "code": "12290",
      "lines": [
        "丰沙线"
      ]
    },
    {
      "name_zh": "燕郊",
      "name_en": "Yanjiao",
      "lat": 39.94057,
      "lon": 116.819673,
      "country": "cr",
      "code": "11108",
      "lines": [
        "京唐城际线"
      ]
    },
    {
      "name_zh": "呼和浩特",
      "name_en": "Hohhot",
      "lat": 40.829499,
      "lon": 111.658306,
      "country": "cr",
      "code": "12581",
      "lines": [
        "京包客运专线京呼段"
      ]
    },
    {
      "name_zh": "呼和浩特东",
      "name_en": "Hohhot E.",
      "lat": 40.848343,
      "lon": 111.759334,
      "country": "cr",
      "code": "12578",
      "lines": [
        "京包线呼和浩特段",
        "京包客运专线京呼段"
      ]
    },
    {
      "name_zh": "乌兰察布",
      "name_en": "Ulanqab",
      "lat": 40.963345,
      "lon": 113.152254,
      "country": "cr",
      "code": "12113",
      "lines": [
        "京包客运专线京呼段"
      ]
    },
    {
      "name_zh": "通辽",
      "name_en": "Tongliao",
      "lat": 43.602941,
      "lon": 122.266425,
      "country": "cr",
      "code": "53363",
      "lines": [
        "新通客运专线"
      ]
    },
    {
      "name_zh": "海拉尔",
      "name_en": "Hailar",
      "lat": 49.22843,
      "lon": 119.736663,
      "country": "cr",
      "code": "57785",
      "lines": [
        "滨洲线"
      ]
    },
    {
      "name_zh": "哈尔滨",
      "name_en": "Harbin",
      "lat": 45.758149,
      "lon": 126.62486,
      "country": "cr",
      "code": "55661",
      "lines": [
        "京哈线",
        "滨洲线",
        "京哈高速线沈哈段",
        "哈牡客运专线"
      ]
    },
    {
      "name_zh": "哈尔滨东",
      "name_en": "Harbin E.",
      "lat": 45.784391,
      "lon": 126.707134,
      "country": "cr",
      "code": "60002",
      "lines": [
        "拉滨线",
        "滨北线"
      ]
    },
    {
      "name_zh": "哈尔滨西",
      "name_en": "Harbin W.",
      "lat": 45.705387,
      "lon": 126.571042,
      "country": "cr",
      "code": "53469",
      "lines": [
        "京哈线"
      ]
    },
    {
      "name_zh": "呼兰",
      "name_en": "Hulan",
      "lat": 45.996263,
      "lon": 126.640569,
      "country": "cr",
      "code": "59789",
      "lines": [
        "滨北线"
      ]
    },
    {
      "name_zh": "牡丹江",
      "name_en": "Mudanjiang",
      "lat": 44.589049,
      "lon": 129.60628,
      "country": "cr",
      "code": "61193",
      "lines": [
        "滨绥线哈牡段",
        "滨绥线牡绥段",
        "哈牡客运专线"
      ]
    },
    {
      "name_zh": "横道河子东",
      "name_en": "Hengdaohezi E.",
      "lat": 44.788929,
      "lon": 129.09908,
      "country": "cr",
      "code": "61189",
      "lines": [
        "哈牡客运专线"
      ]
    },
    {
      "name_zh": "绥芬河",
      "name_en": "Suifenhe",
      "lat": 44.404199,
      "lon": 131.129175,
      "country": "cr",
      "code": "62231",
      "lines": [
        "滨绥线牡绥段"
      ]
    },
    {
      "name_zh": "齐齐哈尔",
      "name_en": "Qiqihar",
      "lat": 47.338071,
      "lon": 123.989172,
      "country": "cr",
      "code": "56675",
      "lines": [
        "平齐线",
        "齐北线"
      ]
    },
    {
      "name_zh": "漠河",
      "name_en": "Mohe",
      "lat": 52.986709,
      "lon": 122.500514,
      "country": "cr",
      "code": "59150",
      "lines": [
        "富西线"
      ]
    },
    {
      "name_zh": "长春",
      "name_en": "Changchun",
      "lat": 43.909017,
      "lon": 125.318013,
      "country": "cr",
      "code": "54116",
      "lines": [
        "京哈线",
        "长珲城际线"
      ]
    },
    {
      "name_zh": "龙嘉",
      "name_en": "Longjia Airport",
      "lat": 43.990324,
      "lon": 125.693945,
      "country": "cr",
      "code": "65960",
      "lines": [
        "长珲城际线"
      ]
    },
    {
      "name_zh": "吉林",
      "name_en": "Jilin",
      "lat": 43.857022,
      "lon": 126.572451,
      "country": "cr",
      "code": "63059",
      "lines": [
        "长珲城际线"
      ]
    },
    {
      "name_zh": "四平",
      "name_en": "Siping",
      "lat": 43.165104,
      "lon": 124.36728,
      "country": "cr",
      "code": "54011",
      "lines": [
        "京哈线",
        "平齐线",
        "四梅线"
      ]
    },
    {
      "name_zh": "四平东",
      "name_en": "Siping E.",
      "lat": 43.135985,
      "lon": 124.43178,
      "country": "cr",
      "code": "53487",
      "lines": [
        "京哈高速线沈哈段"
      ]
    },
    {
      "name_zh": "通化",
      "name_en": "Tonghua",
      "lat": 41.7761,
      "lon": 125.91626,
      "country": "cr",
      "code": "64418",
      "lines": [
        "梅集线"
      ]
    },
    {
      "name_zh": "长白山",
      "name_en": "Changbaishan",
      "lat": 42.459589,
      "lon": 128.122375,
      "country": "cr",
      "code": "64090",
      "lines": [
        "沈佳高速线敦白段"
      ]
    },
    {
      "name_zh": "沈阳北",
      "name_en": "Shenyang N.",
      "lat": 41.81696,
      "lon": 123.429815,
      "country": "cr",
      "code": "53885",
      "lines": [
        "京哈线",
        "京哈高速线沈哈段",
        "沈大高速线",
        "沈佳高速线沈白段"
      ]
    },
    {
      "name_zh": "沈阳南",
      "name_en": "Shenyang S.",
      "lat": 41.66637,
      "lon": 123.400938,
      "country": "cr",
      "code": "63623",
      "lines": [
        "沈大高速线",
        "沈丹客专线"
      ]
    },
    {
      "name_zh": "大连",
      "name_en": "Dalian",
      "lat": 38.921389,
      "lon": 121.628079,
      "country": "cr",
      "code": "53522",
      "lines": [
        "沈大线"
      ]
    },
    {
      "name_zh": "大连北",
      "name_en": "Dalian N.",
      "lat": 39.015978,
      "lon": 121.601377,
      "country": "cr",
      "code": "53520",
      "lines": [
        "沈大线",
        "沈大高速线",
        "丹大线"
      ]
    },
    {
      "name_zh": "抚顺",
      "name_en": "Fushun",
      "lat": 41.888034,
      "lon": 123.912075,
      "country": "cr",
      "code": "55376",
      "lines": [
        "沈佳高速线沈白段"
      ]
    },
    {
      "name_zh": "丹东",
      "name_en": "Dandong",
      "lat": 40.122162,
      "lon": 124.380192,
      "country": "cr",
      "code": "55118",
      "lines": [
        "沈丹客专线",
        "丹大线"
      ]
    },
    {
      "name_zh": "济南",
      "name_en": "Jinan",
      "lat": 36.670731,
      "lon": 116.985072,
      "country": "cr",
      "code": "16295",
      "lines": [
        "京沪济南线",
        "济沪联络线",
        "京济联络线",
        "胶济客运专线"
      ]
    },
    {
      "name_zh": "济南西",
      "name_en": "Jinan W.",
      "lat": 36.669206,
      "lon": 116.887906,
      "country": "cr",
      "code": "66812",
      "lines": [
        "京济联络线",
        "京沪高速线"
      ]
    },
    {
      "name_zh": "淄博",
      "name_en": "Zibo",
      "lat": 36.788356,
      "lon": 118.051558,
      "country": "cr",
      "code": "17786",
      "lines": [
        "胶济客运专线"
      ]
    },
    {
      "name_zh": "南博山",
      "name_en": "South Boshan",
      "lat": 36.357596,
      "lon": 117.955066,
      "country": "cr",
      "code": "18383",
      "lines": [
        "辛泰线"
      ]
    },
    {
      "name_zh": "泰安",
      "name_en": "Tai'an",
      "lat": 36.172083,
      "lon": 117.029348,
      "country": "cr",
      "code": "66815",
      "lines": [
        "京沪高速线"
      ]
    },
    {
      "name_zh": "泰山",
      "name_en": "Taishan",
      "lat": 36.186857,
      "lon": 117.103623,
      "country": "cr",
      "code": "16352",
      "lines": [
        "京沪线",
        "辛泰线"
      ]
    },
    {
      "name_zh": "青岛北",
      "name_en": "Qingdao N.",
      "lat": 36.168694,
      "lon": 120.369524,
      "country": "cr",
      "code": "18088",
      "lines": [
        "胶济客运专线",
        "济青高速线"
      ]
    },
    {
      "name_zh": "兖州",
      "name_en": "Yanzhou",
      "lat": 35.556214,
      "lon": 116.835541,
      "country": "cr",
      "code": "16400",
      "lines": [
        "京沪线"
      ]
    },
    {
      "name_zh": "威海",
      "name_en": "Weihai",
      "lat": 37.425663,
      "lon": 122.138637,
      "country": "cr",
      "code": "18618",
      "lines": [
        "青荣城际线威荣段"
      ]
    },
    {
      "name_zh": "烟台",
      "name_en": "Yantai",
      "lat": 37.547492,
      "lon": 121.377421,
      "country": "cr",
      "code": "18557",
      "lines": [
        "青烟直通线"
      ]
    },
    {
      "name_zh": "莱西",
      "name_en": "Laixi",
      "lat": 36.823534,
      "lon": 120.524985,
      "country": "cr",
      "code": "18657",
      "lines": [
        "莱西联络线",
        "青荣城际线青烟段"
      ]
    },
    {
      "name_zh": "上海",
      "name_en": "Shanghai",
      "lat": 31.251539,
      "lon": 121.45119,
      "country": "cr",
      "code": "30671",
      "lines": [
        "京沪线",
        "沪宁城际线"
      ]
    },
    {
      "name_zh": "上海南",
      "name_en": "Shanghai S.",
      "lat": 31.153863,
      "lon": 121.426983,
      "country": "cr",
      "code": "32270",
      "lines": [
        "沪春线",
        "上海南联络线（沪春三四线）"
      ]
    },
    {
      "name_zh": "上海虹桥",
      "name_en": "Shanghai Hongqiao",
      "lat": 31.196704,
      "lon": 121.314801,
      "country": "cr",
      "code": "66100",
      "lines": [
        "沪苏湖高速线",
        "虹封线",
        "虹安联络线",
        "虹七线",
        "京沪高速线",
        "沪昆高速线沪赣段"
      ]
    },
    {
      "name_zh": "上海西",
      "name_en": "Shanghai W.",
      "lat": 31.264135,
      "lon": 121.398156,
      "country": "cr",
      "code": "30662",
      "lines": [
        "沪宁城际线"
      ]
    },
    {
      "name_zh": "上海松江",
      "name_en": "Shanghai Songjiang",
      "lat": 30.985034,
      "lon": 121.22531,
      "country": "cr",
      "code": "32022",
      "lines": [
        "沪昆线",
        "沪苏湖高速线",
        "沪昆高速线沪赣段"
      ]
    },
    {
      "name_zh": "[松江北]",
      "name_en": "[Songjiang N.]",
      "lat": 31.00168,
      "lon": 121.223402,
      "country": "cr",
      "code": "32090",
      "lines": []
    },
    {
      "name_zh": "南京",
      "name_en": "Nanjing",
      "lat": 32.09012,
      "lon": 118.793041,
      "country": "cr",
      "code": "16805",
      "lines": [
        "京沪线",
        "沪宁城际线"
      ]
    },
    {
      "name_zh": "南京南",
      "name_en": "Nanjing S.",
      "lat": 31.970063,
      "lon": 118.793877,
      "country": "cr",
      "code": "16804",
      "lines": [
        "沪宁沿江高速线",
        "京沪高速线",
        "宁蓉线宁汉段",
        "宁杭高速线"
      ]
    },
    {
      "name_zh": "苏州",
      "name_en": "Suzhou",
      "lat": 31.331842,
      "lon": 120.606681,
      "country": "cr",
      "code": "30530",
      "lines": [
        "京沪线",
        "沪宁城际线"
      ]
    },
    {
      "name_zh": "苏州北",
      "name_en": "Suzhou N.",
      "lat": 31.423241,
      "lon": 120.639286,
      "country": "cr",
      "code": "66854",
      "lines": [
        "京沪高速线"
      ]
    },
    {
      "name_zh": "苏州园区",
      "name_en": "Suzhou SIP",
      "lat": 31.343685,
      "lon": 120.706233,
      "country": "cr",
      "code": "66328",
      "lines": [
        "沪宁城际线"
      ]
    },
    {
      "name_zh": "苏州新区",
      "name_en": "Suzhou SND",
      "lat": 31.374043,
      "lon": 120.520109,
      "country": "cr",
      "code": "66325",
      "lines": [
        "沪宁城际线"
      ]
    },
    {
      "name_zh": "苏州南",
      "name_en": "Suzhou S.",
      "lat": 31.065315,
      "lon": 120.795515,
      "country": "cr",
      "code": "32026",
      "lines": [
        "沪苏湖高速线"
      ]
    },
    {
      "name_zh": "太仓",
      "name_en": "Taicang",
      "lat": 31.512012,
      "lon": 121.192145,
      "country": "cr",
      "code": "16565",
      "lines": [
        "太仓联络线",
        "沪宁沿江高速线",
        "沪苏通线"
      ]
    },
    {
      "name_zh": "常熟",
      "name_en": "Changshu",
      "lat": 31.699534,
      "lon": 120.775997,
      "country": "cr",
      "code": "16561",
      "lines": [
        "沪宁沿江高速线",
        "沪苏通线"
      ]
    },
    {
      "name_zh": "张家港",
      "name_en": "Zhangjiagang",
      "lat": 31.819379,
      "lon": 120.669746,
      "country": "cr",
      "code": "16559",
      "lines": [
        "沪宁沿江高速线",
        "沪苏通线"
      ]
    },
    {
      "name_zh": "无锡新区",
      "name_en": "Wuxi New District",
      "lat": 31.499407,
      "lon": 120.387922,
      "country": "cr",
      "code": "66322",
      "lines": [
        "沪宁城际线"
      ]
    },
    {
      "name_zh": "江阴",
      "name_en": "Jiangyin",
      "lat": 31.863894,
      "lon": 120.274643,
      "country": "cr",
      "code": "19097",
      "lines": [
        "沪宁沿江高速线"
      ]
    },
    {
      "name_zh": "常州",
      "name_en": "Changzhou",
      "lat": 31.787334,
      "lon": 119.969199,
      "country": "cr",
      "code": "30452",
      "lines": [
        "沪宁城际线"
      ]
    },
    {
      "name_zh": "武进",
      "name_en": "Wujin",
      "lat": 31.661213,
      "lon": 119.942015,
      "country": "cr",
      "code": "19105",
      "lines": [
        "沪宁沿江高速线"
      ]
    },
    {
      "name_zh": "镇江",
      "name_en": "Zhenjiang",
      "lat": 32.199586,
      "lon": 119.427367,
      "country": "cr",
      "code": "30407",
      "lines": [
        "沪宁城际线",
        "镇江联络线"
      ]
    },
    {
      "name_zh": "徐州东",
      "name_en": "Xuzhou E.",
      "lat": 34.268629,
      "lon": 117.29773,
      "country": "cr",
      "code": "66827",
      "lines": [
        "京沪高速线",
        "徐盐高速线",
        "徐州联络线"
      ]
    },
    {
      "name_zh": "宿迁",
      "name_en": "Suqian",
      "lat": 33.87591,
      "lon": 118.276336,
      "country": "cr",
      "code": "18828",
      "lines": [
        "徐盐高速线"
      ]
    },
    {
      "name_zh": "淮安东",
      "name_en": "Huai'an E.",
      "lat": 33.570124,
      "lon": 119.182747,
      "country": "cr",
      "code": "18830",
      "lines": [
        "徐盐高速线",
        "连镇高速线"
      ]
    },
    {
      "name_zh": "连云港",
      "name_en": "Lianyungang",
      "lat": 34.610303,
      "lon": 119.158251,
      "country": "cr",
      "code": "38531",
      "lines": [
        "青盐线"
      ]
    },
    {
      "name_zh": "盐城",
      "name_en": "Yancheng",
      "lat": 33.383739,
      "lon": 120.16919,
      "country": "cr",
      "code": "18968",
      "lines": [
        "盐通高速线",
        "新长线",
        "徐盐高速线"
      ]
    },
    {
      "name_zh": "海安",
      "name_en": "Hai'an",
      "lat": 32.549268,
      "lon": 120.50033,
      "country": "cr",
      "code": "17370",
      "lines": [
        "盐通高速线",
        "宁启线",
        "新长线"
      ]
    },
    {
      "name_zh": "扬州",
      "name_en": "Yangzhou",
      "lat": 32.391623,
      "lon": 119.345396,
      "country": "cr",
      "code": "17364",
      "lines": [
        "宁启线"
      ]
    },
    {
      "name_zh": "扬州东",
      "name_en": "Yangzhou E.",
      "lat": 32.40657,
      "lon": 119.523948,
      "country": "cr",
      "code": "17334",
      "lines": [
        "连镇高速线"
      ]
    },
    {
      "name_zh": "杭州",
      "name_en": "Hangzhou",
      "lat": 30.246198,
      "lon": 120.177326,
      "country": "cr",
      "code": "32252",
      "lines": [
        "笕杭线",
        "宣杭线"
      ]
    },
    {
      "name_zh": "杭州东",
      "name_en": "Hangzhou E.",
      "lat": 30.293964,
      "lon": 120.207892,
      "country": "cr",
      "code": "32001",
      "lines": [
        "沪昆线",
        "沪昆高速线沪赣段",
        "杭深线杭甬段",
        "宁杭高速线"
      ]
    },
    {
      "name_zh": "杭州南",
      "name_en": "Hangzhou S.",
      "lat": 30.174535,
      "lon": 120.288713,
      "country": "cr",
      "code": "32460",
      "lines": [
        "沪昆线",
        "萧甬线",
        "沪昆高速线沪赣段",
        "杭甬联络线"
      ]
    },
    {
      "name_zh": "杭州西",
      "name_en": "Hangzhou W.",
      "lat": 30.300426,
      "lon": 119.98213,
      "country": "cr",
      "code": "66279",
      "lines": [
        "合杭高速线"
      ]
    },
    {
      "name_zh": "绍兴",
      "name_en": "Shaoxing",
      "lat": 30.016435,
      "lon": 120.574742,
      "country": "cr",
      "code": "33185",
      "lines": [
        "萧甬线"
      ]
    },
    {
      "name_zh": "绍兴北",
      "name_en": "Shaoxing N.",
      "lat": 30.102819,
      "lon": 120.532994,
      "country": "cr",
      "code": "33187",
      "lines": [
        "杭深线杭甬段"
      ]
    },
    {
      "name_zh": "诸暨",
      "name_en": "Zhuji",
      "lat": 29.730065,
      "lon": 120.181038,
      "country": "cr",
      "code": "32501",
      "lines": [
        "沪昆高速线沪赣段"
      ]
    },
    {
      "name_zh": "宁波",
      "name_en": "Ningbo",
      "lat": 29.865233,
      "lon": 121.532402,
      "country": "cr",
      "code": "33284",
      "lines": [
        "杭深线杭甬段",
        "杭深线甬深段"
      ]
    },
    {
      "name_zh": "温州南",
      "name_en": "Wenzhou S.",
      "lat": 27.969313,
      "lon": 120.581208,
      "country": "cr",
      "code": "33990",
      "lines": [
        "杭深线甬深段",
        "金温线"
      ]
    },
    {
      "name_zh": "义乌",
      "name_en": "Yiwu",
      "lat": 29.380372,
      "lon": 120.038677,
      "country": "cr",
      "code": "32537",
      "lines": [
        "杭温高速线杭义段"
      ]
    },
    {
      "name_zh": "横店",
      "name_en": "Hengdian",
      "lat": 29.217579,
      "lon": 120.260177,
      "country": "cr",
      "code": "21011",
      "lines": [
        "杭温高速线义温段"
      ]
    },
    {
      "name_zh": "湖州",
      "name_en": "Huzhou",
      "lat": 30.864274,
      "lon": 120.019428,
      "country": "cr",
      "code": "31854",
      "lines": [
        "沪苏湖高速线",
        "宁杭高速线",
        "合杭高速线"
      ]
    },
    {
      "name_zh": "湖州南浔",
      "name_en": "Huzhou Nanxun",
      "lat": 30.829534,
      "lon": 120.402696,
      "country": "cr",
      "code": "32028",
      "lines": [
        "沪苏湖高速线"
      ]
    },
    {
      "name_zh": "嘉兴",
      "name_en": "Jiaxing",
      "lat": 30.766969,
      "lon": 120.758817,
      "country": "cr",
      "code": "32138",
      "lines": [
        "沪昆线"
      ]
    },
    {
      "name_zh": "嘉兴南",
      "name_en": "Jiaxing S.",
      "lat": 30.693215,
      "lon": 120.794937,
      "country": "cr",
      "code": "32013",
      "lines": [
        "沪昆高速线沪赣段"
      ]
    },
    {
      "name_zh": "海宁",
      "name_en": "Haining",
      "lat": 30.535639,
      "lon": 120.680671,
      "country": "cr",
      "code": "32159",
      "lines": [
        "沪昆线"
      ]
    },
    {
      "name_zh": "衢州",
      "name_en": "Quzhou",
      "lat": 28.927599,
      "lon": 118.876167,
      "country": "cr",
      "code": "32621",
      "lines": [
        "沪昆线",
        "衢九线",
        "沪昆高速线沪赣段"
      ]
    },
    {
      "name_zh": "合肥南",
      "name_en": "Hefei S.",
      "lat": 31.800958,
      "lon": 117.284759,
      "country": "cr",
      "code": "19423",
      "lines": [
        "宁蓉线宁汉段",
        "合福高速线合黄段"
      ]
    },
    {
      "name_zh": "黄山北",
      "name_en": "Huangshan N.",
      "lat": 29.818051,
      "lon": 118.267618,
      "country": "cr",
      "code": "34130",
      "lines": [
        "池黄高速线",
        "杭昌高速线",
        "合福高速线合黄段"
      ]
    },
    {
      "name_zh": "黟县东",
      "name_en": "Yixian E.",
      "lat": 29.887332,
      "lon": 118.042367,
      "country": "cr",
      "code": "35927",
      "lines": [
        "池黄高速线"
      ]
    },
    {
      "name_zh": "芜湖",
      "name_en": "Wuhu",
      "lat": 31.350149,
      "lon": 118.387385,
      "country": "cr",
      "code": "30926",
      "lines": [
        "淮南线",
        "皖赣线",
        "合杭高速线"
      ]
    },
    {
      "name_zh": "芜湖南",
      "name_en": "Wuhu S.",
      "lat": 31.250829,
      "lon": 118.373327,
      "country": "cr",
      "code": "30928",
      "lines": [
        "合杭高速线"
      ]
    },
    {
      "name_zh": "池州",
      "name_en": "Chizhou",
      "lat": 30.622132,
      "lon": 117.516126,
      "country": "cr",
      "code": "31015",
      "lines": [
        "池黄高速线"
      ]
    },
    {
      "name_zh": "福州",
      "name_en": "Fuzhou",
      "lat": 26.117167,
      "lon": 119.315415,
      "country": "cr",
      "code": "34682",
      "lines": [
        "昌福线",
        "合福高速线饶福段"
      ]
    },
    {
      "name_zh": "福州南",
      "name_en": "Fuzhou S.",
      "lat": 25.988279,
      "lon": 119.385601,
      "country": "cr",
      "code": "34151",
      "lines": [
        "甬广高速线",
        "杭深线甬深段"
      ]
    },
    {
      "name_zh": "厦门",
      "name_en": "Xiamen",
      "lat": 24.470209,
      "lon": 118.111225,
      "country": "cr",
      "code": "34583",
      "lines": [
        "鹰厦线"
      ]
    },
    {
      "name_zh": "厦门北",
      "name_en": "Xiamen N.",
      "lat": 24.638772,
      "lon": 118.06903,
      "country": "cr",
      "code": "34178",
      "lines": [
        "甬广高速线",
        "杭深线甬深段"
      ]
    },
    {
      "name_zh": "泉州",
      "name_en": "Quanzhou",
      "lat": 24.976173,
      "lon": 118.563221,
      "country": "cr",
      "code": "34169",
      "lines": [
        "杭深线甬深段"
      ]
    },
    {
      "name_zh": "漳州",
      "name_en": "Zhangzhou",
      "lat": 24.460352,
      "lon": 117.711826,
      "country": "cr",
      "code": "35067",
      "lines": [
        "杭深线甬深段"
      ]
    },
    {
      "name_zh": "广州东",
      "name_en": "Guangzhou E.",
      "lat": 23.152877,
      "lon": 113.319977,
      "country": "cr",
      "code": "23711",
      "lines": [
        "广深城际线"
      ]
    },
    {
      "name_zh": "广州南",
      "name_en": "Guangzhou S.",
      "lat": 22.991077,
      "lon": 113.261758,
      "country": "cr",
      "code": "65848",
      "lines": [
        "京广高速线武广段",
        "南广线"
      ]
    },
    {
      "name_zh": "广州北",
      "name_en": "Guangzhou N,",
      "lat": 23.379972,
      "lon": 113.198418,
      "country": "cr",
      "code": "23471",
      "lines": [
        "花广联络线",
        "京广高速线武广段"
      ]
    },
    {
      "name_zh": "广州白云",
      "name_en": "Guangzhou Baiyun",
      "lat": 23.193938,
      "lon": 113.241036,
      "country": "cr",
      "code": "23475",
      "lines": [
        "花广联络线"
      ]
    },
    {
      "name_zh": "广州新塘",
      "name_en": "Guangzhou Xintang",
      "lat": 23.136824,
      "lon": 113.60113,
      "country": "cr",
      "code": "23738",
      "lines": [
        "广深城际线"
      ]
    },
    {
      "name_zh": "花都",
      "name_en": "Huadu",
      "lat": 23.379797,
      "lon": 113.197517,
      "country": "cr",
      "code": "",
      "lines": [
        "广州东环城际线",
        "广清城际线"
      ]
    },
    {
      "name_zh": "清城",
      "name_en": "Qingcheng",
      "lat": 23.656003,
      "lon": 113.061023,
      "country": "gi",
      "code": "",
      "lines": [
        "广清城际线"
      ]
    },
    {
      "name_zh": "白云机场北",
      "name_en": "Baiyun Airport N.",
      "lat": 23.398986,
      "lon": 113.300541,
      "country": "gi",
      "code": "",
      "lines": [
        "广州东环城际线"
      ]
    },
    {
      "name_zh": "深圳北",
      "name_en": "Shenzhen N.",
      "lat": 22.609954,
      "lon": 114.023289,
      "country": "cr",
      "code": "65860",
      "lines": [
        "京广高速线武广段",
        "杭深线甬深段"
      ]
    },
    {
      "name_zh": "深圳",
      "name_en": "Shenzhen",
      "lat": 22.535525,
      "lon": 114.112668,
      "country": "cr",
      "code": "23819",
      "lines": [
        "广深城际线"
      ]
    },
    {
      "name_zh": "福田",
      "name_en": "Futian",
      "lat": 22.54089,
      "lon": 114.051891,
      "country": "cr",
      "code": "65891",
      "lines": [
        "广深港高速线"
      ]
    },
    {
      "name_zh": "东莞",
      "name_en": "Dongguan",
      "lat": 23.092445,
      "lon": 113.854212,
      "country": "cr",
      "code": "23757",
      "lines": [
        "广深城际线"
      ]
    },
    {
      "name_zh": "西平西",
      "name_en": "Xiping W.",
      "lat": 22.996362,
      "lon": 113.74057,
      "country": "gi",
      "code": "",
      "lines": [
        "广惠城际线"
      ]
    },
    {
      "name_zh": "惠阳",
      "name_en": "Huiyang",
      "lat": 22.787649,
      "lon": 114.487586,
      "country": "cr",
      "code": "25851",
      "lines": [
        "杭深线甬深段"
      ]
    },
    {
      "name_zh": "佛山西",
      "name_en": "Foshan W.",
      "lat": 23.082342,
      "lon": 113.028258,
      "country": "cr",
      "code": "24568",
      "lines": [
        "南广线",
        "广肇城际线"
      ]
    },
    {
      "name_zh": "顺德北",
      "name_en": "Shunde N.",
      "lat": 22.964447,
      "lon": 113.124193,
      "country": "gi",
      "code": "",
      "lines": [
        "广肇城际线"
      ]
    },
    {
      "name_zh": "张槎",
      "name_en": "Zhangcha",
      "lat": 23.011695,
      "lon": 113.0622,
      "country": "gi",
      "code": "",
      "lines": [
        "广肇城际线"
      ]
    },
    {
      "name_zh": "深圳机场",
      "name_en": "Shenzhen Airport",
      "lat": 22.623983,
      "lon": 113.806032,
      "country": "cr",
      "code": "22990",
      "lines": [
        "穗深城际线"
      ]
    },
    {
      "name_zh": "东莞西",
      "name_en": "Dongguan W.",
      "lat": 23.01087,
      "lon": 113.620906,
      "country": "cr",
      "code": "23858",
      "lines": [
        "穗深城际线",
        "广惠城际线"
      ]
    },
    {
      "name_zh": "琶洲",
      "name_en": "Pazhou",
      "lat": 23.102843,
      "lon": 113.362706,
      "country": "gi",
      "code": "",
      "lines": [
        "琶莲城际线"
      ]
    },
    {
      "name_zh": "香港西九龙",
      "name_en": "HongKong West Kowloon",
      "lat": 22.303882,
      "lon": 114.165443,
      "country": "cr",
      "code": "65896",
      "lines": [
        "广深港高速线"
      ]
    },
    {
      "name_zh": "南宁",
      "name_en": "Nanning",
      "lat": 22.829139,
      "lon": 108.311523,
      "country": "cr",
      "code": "36428",
      "lines": [
        "南凭高速线",
        "南昆客运专线"
      ]
    },
    {
      "name_zh": "南宁东",
      "name_en": "Nanning E.",
      "lat": 22.84528,
      "lon": 108.409606,
      "country": "cr",
      "code": "36452",
      "lines": [
        "南珠高速线",
        "贵南高速线"
      ]
    },
    {
      "name_zh": "吴圩机场",
      "name_en": "Wuxu Airport",
      "lat": 22.602692,
      "lon": 108.18296,
      "country": "cr",
      "code": "36433",
      "lines": [
        "南凭高速线"
      ]
    },
    {
      "name_zh": "崇左南",
      "name_en": "Chongzuo S.",
      "lat": 22.359854,
      "lon": 107.390852,
      "country": "cr",
      "code": "36437",
      "lines": [
        "南凭高速线"
      ]
    },
    {
      "name_zh": "玉林北",
      "name_en": "Yulin N.",
      "lat": 22.724276,
      "lon": 110.245228,
      "country": "cr",
      "code": "",
      "lines": [
        "南珠高速线"
      ]
    },
    {
      "name_zh": "玉林",
      "name_en": "Yulin",
      "lat": 22.599788,
      "lon": 110.153209,
      "country": "cr",
      "code": "37148",
      "lines": [
        "黎湛线"
      ]
    },
    {
      "name_zh": "金城江",
      "name_en": "Jinchengjiang",
      "lat": 24.70179,
      "lon": 108.061382,
      "country": "cr",
      "code": "37376",
      "lines": [
        "黔桂线"
      ]
    },
    {
      "name_zh": "河池西",
      "name_en": "Hechi W.",
      "lat": 24.714364,
      "lon": 108.171197,
      "country": "cr",
      "code": "47516",
      "lines": [
        "贵南高速线"
      ]
    },
    {
      "name_zh": "美兰",
      "name_en": "Meilan Airport",
      "lat": 19.943528,
      "lon": 110.456955,
      "country": "cr",
      "code": "51444",
      "lines": [
        "海南东环高速线"
      ]
    },
    {
      "name_zh": "城西",
      "name_en": "Chengxi",
      "lat": 19.998119,
      "lon": 110.32769,
      "country": "cr",
      "code": "51450",
      "lines": [
        "海南东环高速线"
      ]
    },
    {
      "name_zh": "海口东",
      "name_en": "Haikou E.",
      "lat": 19.985488,
      "lon": 110.338834,
      "country": "cr",
      "code": "51447",
      "lines": [
        "海南东环高速线"
      ]
    },
    {
      "name_zh": "三亚",
      "name_en": "Sanya",
      "lat": 18.297786,
      "lon": 109.48898,
      "country": "cr",
      "code": "51481",
      "lines": [
        "海南东环高速线",
        "海南西环高速线"
      ]
    },
    {
      "name_zh": "崖州",
      "name_en": "Yazhou",
      "lat": 18.37769,
      "lon": 109.153496,
      "country": "cr",
      "code": "51480",
      "lines": [
        "崖州联络线",
        "海南西环高速线"
      ]
    },
    {
      "name_zh": "凤凰机场",
      "name_en": "Fenghuang Airport",
      "lat": 18.310561,
      "lon": 109.404688,
      "country": "cr",
      "code": "51682",
      "lines": [
        "凤凰联络线",
        "海南西环高速线"
      ]
    },
    {
      "name_zh": "南昌",
      "name_en": "Nanchang",
      "lat": 28.665071,
      "lon": 115.913113,
      "country": "cr",
      "code": "25424",
      "lines": [
        "京九线南昌段"
      ]
    },
    {
      "name_zh": "新余北",
      "name_en": "Xinyu N.",
      "lat": 27.914737,
      "lon": 114.891878,
      "country": "cr",
      "code": "65643",
      "lines": [
        "沪昆高速线沪赣段",
        "沪昆高速线沪赣段"
      ]
    },
    {
      "name_zh": "分宜",
      "name_en": "Fenyi",
      "lat": 27.809323,
      "lon": 114.658631,
      "country": "cr",
      "code": "33023",
      "lines": [
        "沪昆线"
      ]
    },
    {
      "name_zh": "宜春",
      "name_en": "Yichun",
      "lat": 27.792421,
      "lon": 114.431339,
      "country": "cr",
      "code": "65646",
      "lines": [
        "沪昆线",
        "沪昆高速线赣湘段"
      ]
    },
    {
      "name_zh": "长沙",
      "name_en": "Changsha",
      "lat": 28.197434,
      "lon": 113.007695,
      "country": "cr",
      "code": "22874",
      "lines": [
        "湘潭城际线",
        "长沙西城际线"
      ]
    },
    {
      "name_zh": "长沙南",
      "name_en": "Changsha S.",
      "lat": 28.14943,
      "lon": 113.058156,
      "country": "cr",
      "code": "65818",
      "lines": [
        "京广高速线武广段",
        "沪昆高速线赣湘段"
      ]
    },
    {
      "name_zh": "谷山",
      "name_en": "Gushan",
      "lat": 28.233342,
      "lon": 112.902291,
      "country": "cr",
      "code": "65207",
      "lines": [
        "长沙西城际线"
      ]
    },
    {
      "name_zh": "开福寺",
      "name_en": "Kaifusi",
      "lat": 28.226739,
      "lon": 112.974665,
      "country": "cr",
      "code": "65213",
      "lines": [
        "长沙西城际线"
      ]
    },
    {
      "name_zh": "湘潭",
      "name_en": "Xiangtan",
      "lat": 27.878918,
      "lon": 112.906942,
      "country": "cr",
      "code": "35312",
      "lines": [
        "湘潭城际线"
      ]
    },
    {
      "name_zh": "湘潭北",
      "name_en": "Xiangtan N.",
      "lat": 27.968399,
      "lon": 112.936745,
      "country": "cr",
      "code": "65660",
      "lines": [
        "沪昆高速线赣湘段"
      ]
    },
    {
      "name_zh": "凤凰古城",
      "name_en": "Fenghuang Ancient Town",
      "lat": 28.020293,
      "lon": 109.598798,
      "country": "cr",
      "code": "65609",
      "lines": [
        "张吉怀高速线"
      ]
    },
    {
      "name_zh": "武汉",
      "name_en": "Wuhan",
      "lat": 30.60937,
      "lon": 114.419997,
      "country": "cr",
      "code": "65800",
      "lines": [
        "京广高速线武广段"
      ]
    },
    {
      "name_zh": "汉口",
      "name_en": "Hankou",
      "lat": 30.620301,
      "lon": 114.250053,
      "country": "cr",
      "code": "21050",
      "lines": [
        "宁蓉线宁汉段",
        "宁蓉线汉渝段"
      ]
    },
    {
      "name_zh": "武昌",
      "name_en": "Wuchang",
      "lat": 30.53277,
      "lon": 114.311764,
      "country": "cr",
      "code": "21077",
      "lines": [
        "京广线郑武段",
        "京广线武广段"
      ]
    },
    {
      "name_zh": "宜昌北",
      "name_en": "Yichang N.",
      "lat": 30.748088,
      "lon": 111.469488,
      "country": "cr",
      "code": "45195",
      "lines": [
        "沪渝蓉高速线"
      ]
    },
    {
      "name_zh": "郑州",
      "name_en": "Zhengzhou",
      "lat": 34.746928,
      "lon": 113.652007,
      "country": "cr",
      "code": "20750",
      "lines": [
        "陇海线"
      ]
    },
    {
      "name_zh": "郑州东",
      "name_en": "Zhengzhou E.",
      "lat": 34.760065,
      "lon": 113.773225,
      "country": "cr",
      "code": "65773",
      "lines": [
        "郑州东北联络线",
        "京广高速线石武段",
        "徐兰高速线郑徐段",
        "郑开城际线"
      ]
    },
    {
      "name_zh": "开封",
      "name_en": "Kaifeng",
      "lat": 34.771678,
      "lon": 114.348279,
      "country": "cr",
      "code": "38774",
      "lines": [
        "陇海线",
        "郑开城际线"
      ]
    },
    {
      "name_zh": "洛阳",
      "name_en": "Luoyang",
      "lat": 34.686405,
      "lon": 112.430106,
      "country": "cr",
      "code": "39173",
      "lines": [
        "陇海线"
      ]
    },
    {
      "name_zh": "安阳东",
      "name_en": "Anyang E.",
      "lat": 36.08474,
      "lon": 114.447441,
      "country": "cr",
      "code": "22531",
      "lines": [
        "京广高速线石武段"
      ]
    },
    {
      "name_zh": "焦作",
      "name_en": "Jiaozuo",
      "lat": 35.222383,
      "lon": 113.22855,
      "country": "cr",
      "code": "38402",
      "lines": [
        "郑太客运专线"
      ]
    },
    {
      "name_zh": "重庆北",
      "name_en": "Chongqing N.",
      "lat": 29.612607,
      "lon": 106.547387,
      "country": "cr",
      "code": "35143",
      "lines": [
        "宁蓉线汉渝段"
      ]
    },
    {
      "name_zh": "沙坪坝",
      "name_en": "Shapingba",
      "lat": 29.556784,
      "lon": 106.457283,
      "country": "cr",
      "code": "47066",
      "lines": [
        "成渝高速线"
      ]
    },
    {
      "name_zh": "贵阳",
      "name_en": "Guiyang",
      "lat": 26.5604,
      "lon": 106.69866,
      "country": "cr",
      "code": "37646",
      "lines": [
        "贵阳客车线",
        "渝贵线"
      ]
    },
    {
      "name_zh": "贵阳北",
      "name_en": "Guiyang N.",
      "lat": 26.623156,
      "lon": 106.670656,
      "country": "cr",
      "code": "47483",
      "lines": [
        "沪昆高速线贵昆段",
        "渝贵线",
        "成贵贵阳北联络线"
      ]
    },
    {
      "name_zh": "贵安",
      "name_en": "Gui'an",
      "lat": 26.469122,
      "lon": 106.481856,
      "country": "cr",
      "code": "65501",
      "lines": [
        "沪昆高速线贵昆段",
        "贵阳环线"
      ]
    },
    {
      "name_zh": "花溪大学城",
      "name_en": "Huaxi University Town",
      "lat": 26.397133,
      "lon": 106.622192,
      "country": "cr",
      "code": "65476",
      "lines": [
        "贵阳环线"
      ]
    },
    {
      "name_zh": "镇远",
      "name_en": "Zhenyuan",
      "lat": 27.038084,
      "lon": 108.405681,
      "country": "cr",
      "code": "35624",
      "lines": [
        "沪昆线"
      ]
    },
    {
      "name_zh": "成都东",
      "name_en": "Chengdu E.",
      "lat": 30.63145,
      "lon": 104.140165,
      "country": "cr",
      "code": "46543",
      "lines": [
        "西成高速线",
        "成贵客运专线成都段"
      ]
    },
    {
      "name_zh": "成都南",
      "name_en": "Chengdu S.",
      "lat": 30.607803,
      "lon": 104.066034,
      "country": "cr",
      "code": "47675",
      "lines": [
        "成昆线",
        "成贵客运专线成都段"
      ]
    },
    {
      "name_zh": "双流机场",
      "name_en": "Shuangliu Airport",
      "lat": 30.57191,
      "lon": 103.954297,
      "country": "cr",
      "code": "47621",
      "lines": [
        "成贵客运专线成都段"
      ]
    },
    {
      "name_zh": "都江堰",
      "name_en": "Dujiangyan",
      "lat": 30.960216,
      "lon": 103.637,
      "country": "cr",
      "code": "46063",
      "lines": [
        "新成灌线"
      ]
    },
    {
      "name_zh": "犀浦",
      "name_en": "Xipu",
      "lat": 30.759841,
      "lon": 103.970208,
      "country": "cr",
      "code": "46042",
      "lines": [
        "新成灌线"
      ]
    },
    {
      "name_zh": "广汉北",
      "name_en": "Guanghan N.",
      "lat": 31.011319,
      "lon": 104.272993,
      "country": "cr",
      "code": "47607",
      "lines": [
        "西成高速线"
      ]
    },
    {
      "name_zh": "黄龙九寨",
      "name_en": "Huanglong Jiuzhai",
      "lat": 32.747465,
      "lon": 103.612973,
      "country": "cr",
      "code": "45587",
      "lines": [
        "川青线"
      ]
    },
    {
      "name_zh": "西昌西",
      "name_en": "Xichang W.",
      "lat": 27.871463,
      "lon": 102.160204,
      "country": "cr",
      "code": "46140",
      "lines": [
        "峨广线"
      ]
    },
    {
      "name_zh": "攀枝花南",
      "name_en": "Panzhihua S.",
      "lat": 26.471606,
      "lon": 101.74648,
      "country": "cr",
      "code": "46158",
      "lines": [
        "峨广线"
      ]
    },
    {
      "name_zh": "资阳北",
      "name_en": "Ziyang N.",
      "lat": 30.128504,
      "lon": 104.679853,
      "country": "cr",
      "code": "46545",
      "lines": [
        "成渝高速线"
      ]
    },
    {
      "name_zh": "昆明",
      "name_en": "Kunming",
      "lat": 25.017766,
      "lon": 102.720356,
      "country": "cr",
      "code": "48197",
      "lines": [
        "广昆线",
        "南昆客运专线"
      ]
    },
    {
      "name_zh": "昆明南",
      "name_en": "Kunming S.",
      "lat": 24.873557,
      "lon": 102.86011,
      "country": "cr",
      "code": "48778",
      "lines": [
        "中老昆万线",
        "沪昆高速线贵昆段",
        "南昆客运专线"
      ]
    },
    {
      "name_zh": "普洱",
      "name_en": "Pu'er",
      "lat": 22.778273,
      "lon": 100.940768,
      "country": "cr",
      "code": "48647",
      "lines": [
        "中老昆万线"
      ]
    },
    {
      "name_zh": "丽江",
      "name_en": "Lijiang",
      "lat": 26.81422,
      "lon": 100.251512,
      "country": "cr",
      "code": "48417",
      "lines": [
        "滇藏线"
      ]
    },
    {
      "name_zh": "香格里拉",
      "name_en": "Shangri-La",
      "lat": 27.813351,
      "lon": 99.688547,
      "country": "cr",
      "code": "49534",
      "lines": [
        "滇藏线"
      ]
    },
    {
      "name_zh": "兰州西",
      "name_en": "Lanzhou W.",
      "lat": 36.069222,
      "lon": 103.74973,
      "country": "cr",
      "code": "41492",
      "lines": [
        "徐兰高速线宝兰段",
        "兰新客运专线"
      ]
    },
    {
      "name_zh": "天水",
      "name_en": "Tianshui",
      "lat": 34.566714,
      "lon": 105.894849,
      "country": "cr",
      "code": "39701",
      "lines": [
        "陇海线"
      ]
    },
    {
      "name_zh": "天水南",
      "name_en": "Tianshui S.",
      "lat": 34.549947,
      "lon": 105.854066,
      "country": "cr",
      "code": "38988",
      "lines": [
        "徐兰高速线宝兰段"
      ]
    },
    {
      "name_zh": "银川",
      "name_en": "Yinchuan",
      "lat": 38.490755,
      "lon": 106.170352,
      "country": "cr",
      "code": "14846",
      "lines": [
        "包兰线",
        "定银线"
      ]
    },
    {
      "name_zh": "格尔木",
      "name_en": "Golmud",
      "lat": 36.383439,
      "lon": 94.906191,
      "country": "cr",
      "code": "43787",
      "lines": [
        "青藏线"
      ]
    },
    {
      "name_zh": "海东西",
      "name_en": "Haidong W.",
      "lat": 36.509383,
      "lon": 102.052982,
      "country": "cr",
      "code": "41521",
      "lines": [
        "兰新客运专线"
      ]
    },
    {
      "name_zh": "拉萨",
      "name_en": "Lhasa",
      "lat": 29.625868,
      "lon": 91.068171,
      "country": "cr",
      "code": "44083",
      "lines": [
        "青藏线",
        "拉日线"
      ]
    },
    {
      "name_zh": "日喀则",
      "name_en": "Shigatse",
      "lat": 29.224193,
      "lon": 88.91301,
      "country": "cr",
      "code": "43936",
      "lines": [
        "拉日线"
      ]
    },
    {
      "name_zh": "大阪",
      "name_en": "Osaka",
      "lat": 34.702221,
      "lon": 135.495576,
      "country": "jp",
      "code": "",
      "lines": [
        "JR东海道线",
        "JR大阪环状线"
      ]
    },
    {
      "name_zh": "西九条",
      "name_en": "Nishi-Kujo",
      "lat": 34.682271,
      "lon": 135.466318,
      "country": "jp",
      "code": "",
      "lines": [
        "JR大阪环状线",
        "阪神难波线"
      ]
    },
    {
      "name_zh": "新今宫",
      "name_en": "Shin-Imamia",
      "lat": 34.649843,
      "lon": 135.502195,
      "country": "jp",
      "code": "",
      "lines": [
        "JR大阪环状线",
        "南海本线"
      ]
    },
    {
      "name_zh": "今宫",
      "name_en": "Imamia",
      "lat": 34.653951,
      "lon": 135.493028,
      "country": "jp",
      "code": "",
      "lines": [
        "JR大阪环状线",
        "JR大和路线"
      ]
    },
    {
      "name_zh": "天王寺",
      "name_en": "Tennoji",
      "lat": 34.647331,
      "lon": 135.515242,
      "country": "jp",
      "code": "",
      "lines": [
        "JR大阪环状线",
        "JR大阪环状线",
        "JR阪和线"
      ]
    },
    {
      "name_zh": "JR难波",
      "name_en": "JR Namba",
      "lat": 34.666478,
      "lon": 135.495326,
      "country": "jp",
      "code": "",
      "lines": [
        "JR大和路线"
      ]
    },
    {
      "name_zh": "和歌山",
      "name_en": "Wakayama",
      "lat": 34.232202,
      "lon": 135.191582,
      "country": "jp",
      "code": "",
      "lines": [
        "JR阪和线",
        "JR纪势线"
      ]
    },
    {
      "name_zh": "和歌山市",
      "name_en": "Wakayamashi",
      "lat": 34.236792,
      "lon": 135.167051,
      "country": "jp",
      "code": "",
      "lines": [
        "JR纪势线",
        "南海本线"
      ]
    },
    {
      "name_zh": "三宫",
      "name_en": "Sannomiya",
      "lat": 34.694863,
      "lon": 135.195082,
      "country": "jp",
      "code": "",
      "lines": [
        "JR山阳线"
      ]
    },
    {
      "name_zh": "神户",
      "name_en": "Kobe",
      "lat": 34.67929,
      "lon": 135.178289,
      "country": "jp",
      "code": "",
      "lines": [
        "JR山阳线"
      ]
    },
    {
      "name_zh": "姬路",
      "name_en": "Himeji",
      "lat": 34.826887,
      "lon": 134.690242,
      "country": "jp",
      "code": "",
      "lines": [
        "JR山阳线"
      ]
    },
    {
      "name_zh": "京都",
      "name_en": "Kyoto",
      "lat": 34.985363,
      "lon": 135.758775,
      "country": "jp",
      "code": "",
      "lines": [
        "JR东海道线",
        "JR奈良线",
        "JR山阴线"
      ]
    },
    {
      "name_zh": "梅小路京都西",
      "name_en": "Umekoji-Kyoto Nishi",
      "lat": 34.988649,
      "lon": 135.743197,
      "country": "jp",
      "code": "",
      "lines": [
        "JR山阴线"
      ]
    },
    {
      "name_zh": "嵯峨岚山",
      "name_en": "Saga Arashiyama",
      "lat": 35.018779,
      "lon": 135.681415,
      "country": "jp",
      "code": "",
      "lines": [
        "JR山阴线"
      ]
    },
    {
      "name_zh": "山科",
      "name_en": "Yamashina",
      "lat": 34.992633,
      "lon": 135.817226,
      "country": "jp",
      "code": "",
      "lines": [
        "JR东海道线",
        "JR湖西线"
      ]
    },
    {
      "name_zh": "石山",
      "name_en": "Ishiyama",
      "lat": 34.979931,
      "lon": 135.900007,
      "country": "jp",
      "code": "",
      "lines": [
        "JR东海道线"
      ]
    },
    {
      "name_zh": "加茂",
      "name_en": "Kamo",
      "lat": 34.752709,
      "lon": 135.869854,
      "country": "jp",
      "code": "",
      "lines": [
        "JR关西线"
      ]
    },
    {
      "name_zh": "JR奈良",
      "name_en": "JR Nara",
      "lat": 34.680812,
      "lon": 135.818943,
      "country": "jp",
      "code": "",
      "lines": [
        "JR关西线"
      ]
    },
    {
      "name_zh": "久宝寺",
      "name_en": "Kyuhoji",
      "lat": 34.622444,
      "lon": 135.584024,
      "country": "jp",
      "code": "",
      "lines": [
        "JR关西线"
      ]
    },
    {
      "name_zh": "敦贺",
      "name_en": "Tsuruga",
      "lat": 35.644882,
      "lon": 136.076392,
      "country": "jp",
      "code": "",
      "lines": [
        "JR北陆线"
      ]
    },
    {
      "name_zh": "关西空港",
      "name_en": "Kansai Airport",
      "lat": 34.435868,
      "lon": 135.243486,
      "country": "jp",
      "code": "",
      "lines": [
        "南海机场线"
      ]
    },
    {
      "name_zh": "加太",
      "name_en": "Kada",
      "lat": 34.275105,
      "lon": 135.080823,
      "country": "jp",
      "code": "",
      "lines": [
        "南海加太线"
      ]
    },
    {
      "name_zh": "淀屋桥",
      "name_en": "Yodoyabashi",
      "lat": 34.692486,
      "lon": 135.501377,
      "country": "jp",
      "code": "",
      "lines": [
        "京阪本线"
      ]
    },
    {
      "name_zh": "三条",
      "name_en": "Sanjo",
      "lat": 35.009015,
      "lon": 135.772334,
      "country": "jp",
      "code": "",
      "lines": [
        "京阪本线"
      ]
    },
    {
      "name_zh": "近铁奈良",
      "name_en": "KT Nara",
      "lat": 34.684133,
      "lon": 135.828556,
      "country": "jp",
      "code": "",
      "lines": [
        "近铁奈良线"
      ]
    },
    {
      "name_zh": "近铁日本桥",
      "name_en": "KT Nippombashi",
      "lat": 34.666901,
      "lon": 135.505701,
      "country": "jp",
      "code": "",
      "lines": [
        "近铁奈良线"
      ]
    },
    {
      "name_zh": "大阪梅田",
      "name_en": "Osaka Umeda",
      "lat": 34.705282,
      "lon": 135.498392,
      "country": "jp",
      "code": "",
      "lines": [
        "阪急宝塚线"
      ]
    },
    {
      "name_zh": "庄内",
      "name_en": "Shonai",
      "lat": 34.750263,
      "lon": 135.475038,
      "country": "jp",
      "code": "",
      "lines": [
        "阪急宝塚线"
      ]
    },
    {
      "name_zh": "阪神三宫",
      "name_en": "HS Sannomiya",
      "lat": 34.693665,
      "lon": 135.195434,
      "country": "jp",
      "code": "",
      "lines": [
        "阪神本线"
      ]
    }
  ]
}